ride_id,rideable_type,started_at,ended_at,start_station_name,start_station_id,end_station_name,end_station_id,start_lat,start_lng,end_lat,end_lng,member_casual
7569BC890583FCD7,classic_bike,23:54.5,37:52.0,Wacker Dr & Washington St,KA1503000072,McClurg Ct & Ohio St,TA1306000029,41.88314336,-87.63724208,41.89259212,-87.61728913,member
013609308856B7FC,electric_bike,44:06.8,49:11.1,Halsted St & Wrightwood Ave,TA1309000061,Racine Ave & Belmont Ave,TA1308000019,41.92914748,-87.64915276,41.939743,-87.658865,member
EACACD3CE0607C0D,classic_bike,16:27.7,28:03.2,Southport Ave & Waveland Ave,13235,Broadway & Cornelia Ave,13278,41.948226,-87.6640712,41.945529,-87.646439,member
EAA2485BA64710D3,classic_bike,49:05.8,52:40.0,Southport Ave & Waveland Ave,13235,Southport Ave & Roscoe St,13071,41.948226,-87.6640712,41.943739,-87.66402,member
7F8BE2471C7F746B,electric_bike,38:32.3,41:06.8,Southport Ave & Waveland Ave,13235,Southport Ave & Roscoe St,13071,41.948226,-87.6640712,41.943739,-87.66402,member
0B8DD16A9B77A1C7,electric_bike,09:06.8,10:55.8,Halsted St & 21st St,13162,Halsted St & 18th St,13099,41.85377981,-87.64660299,41.85750568,-87.64599144,member
65DD88D2EA5AA24A,electric_bike,11:59.7,15:54.2,Halsted St & Wrightwood Ave,TA1309000061,Southport Ave & Wrightwood Ave,TA1307000113,41.929143,-87.649077,41.928773,-87.663913,member
EAC4EE361C030130,electric_bike,43:29.0,01:38.9,Stave St & Armitage Ave,13266,Canal St & Madison St,13341,41.917741,-87.691392,41.882409,-87.639767,member
46267A54446162B5,electric_bike,45:24.7,50:20.5,Larrabee St & Kingsbury St,TA1306000009,Ogden Ave & Race Ave,13194,41.897764,-87.642884,41.891795,-87.658751,member
B5D4F9782121EA51,electric_bike,56:36.9,03:26.6,Albany Ave & Bloomingdale Ave,15655,Campbell Ave & Fullerton Ave,15648,41.91402671,-87.70512646,41.92463247,-87.68930701,member
3C1E48C025E88653,classic_bike,52:33.9,23:51.9,DuSable Lake Shore Dr & Wellington Ave,TA1307000041,Broadway & Barry Ave,13137,41.93668845,-87.63682902,41.93758232,-87.64409781,member
B157E60BBF2BA5F6,electric_bike,23:29.6,30:29.6,Clark St & Drummond Pl,TA1307000142,Clark St & Newport St,632,41.931248,-87.644336,41.94454,-87.654678,member
81AE62C30F86C0D2,classic_bike,11:31.1,17:05.3,Larrabee St & Kingsbury St,TA1306000009,Ogden Ave & Chicago Ave,TA1305000020,41.897764,-87.642884,41.89636246,-87.65406127,member
4978AFB4F96F17A6,classic_bike,20:23.4,28:29.5,Larrabee St & Kingsbury St,TA1306000009,State St & Pearson St,TA1307000061,41.897764,-87.642884,41.897448,-87.628722,member
1DCC4C0315A3B282,classic_bike,52:47.4,54:36.0,Calumet Ave & 18th St,13102,Calumet Ave & 18th St,13102,41.85761755,-87.61941075,41.85761755,-87.61941075,member
5B29C4C95B5320DA,electric_bike,06:42.8,11:43.9,Sheffield Ave & Webster Ave,TA1309000033,Halsted St & Clybourn Ave,331,41.92154,-87.653818,41.909668,-87.648128,member
18048F3531DAF576,electric_bike,20:05.1,23:32.4,Canal St & Jackson Blvd,13138,Halsted St & Polk St,TA1307000121,41.878125,-87.639968,41.87184,-87.64664,member
E2ACFA5C736376F6,electric_bike,26:24.1,42:18.7,California Ave & Fletcher St,15642,Kosciuszko Park,15643,41.93842879,-87.69800776,41.93058537,-87.72377736,member
B1810A3462EAA084,classic_bike,13:25.0,15:55.1,Hermitage Ave & Polk St,13080,Wood St & Taylor St (Temp),13285,41.871514,-87.669886,41.86926522,-87.67373085,member
461D6EC2A99BC110,classic_bike,45:46.5,05:59.3,Racine Ave & 15th St,13304,Stetson Ave & South Water St,TA1308000029,41.861267,-87.656625,41.886835,-87.62232,casual
172BD369FF6D3ADA,classic_bike,51:00.1,19:18.7,Central Park Ave & Elbridge Ave,15644,Kimball Ave & Belmont Ave,KA150400009X,41.93533728,-87.71688929,41.93939395,-87.71206766,member
AF381E3683CE622B,classic_bike,24:36.8,31:15.0,Morgan St & Polk St,TA1307000130,Desplaines St & Jackson Blvd,15539,41.871737,-87.65103,41.8781189,-87.6439476,member
90912007C68DC8DA,electric_bike,35:09.2,51:53.1,Ritchie Ct & Banks St,KA1504000134,Stetson Ave & South Water St,TA1308000029,41.906866,-87.626217,41.886835,-87.62232,member
5A7142E8A39FC161,electric_bike,56:43.9,00:28.1,Aberdeen St & Jackson Blvd,13157,Desplaines St & Jackson Blvd,15539,41.87787306,-87.65477872,41.8781189,-87.6439476,member
2D20CCFBE6719E47,classic_bike,12:04.1,19:13.9,Clinton St & Roosevelt Rd,WL-008,Desplaines St & Jackson Blvd,15539,41.86711778,-87.64108796,41.8781189,-87.6439476,member
009707A9E9077E1D,classic_bike,09:17.3,48:45.9,Shedd Aquarium,15544,DuSable Lake Shore Dr & North Blvd,LF-005,41.86722596,-87.61535539,41.911722,-87.626804,member
3DE54C00139A213B,classic_bike,53:07.3,56:35.8,Sheffield Ave & Willow St,TA1306000032,Sheffield Ave & Willow St,TA1306000032,41.913688,-87.652855,41.913688,-87.652855,member
DAFEB128254B6252,classic_bike,21:53.3,36:23.6,Clark St & Elm St,TA1307000039,Canal St & Monroe St,13056,41.902973,-87.63128,41.8829056,-87.6397409,member
29EB50E4965FA8A6,electric_bike,17:02.2,21:39.0,Sawyer Ave & Irving Park Rd,KA1504000096,Drake Ave & Addison St,KA1504000142,41.95358618,-87.7093108,41.947326,-87.717582,member
260FC94B2A150AE5,electric_bike,10:03.2,22:46.5,Desplaines St & Randolph St,15535,Canal St & Monroe St,13056,41.883703,-87.644238,41.8829056,-87.6397409,casual
4B81EE1E1B413989,electric_bike,39:30.3,48:08.0,Lincoln Ave & Roscoe St*,chargingstx5,Racine Ave & Fullerton Ave,TA1306000026,41.94335025,-87.67066777,41.925566,-87.658416,casual
0B6242FC5805AB59,electric_bike,28:17.9,50:01.0,Clark St & Schreiber Ave,KA1504000156,Racine Ave & Fullerton Ave,TA1306000026,41.999245,-87.671249,41.925566,-87.658416,casual
14CD6059DA03A8F4,electric_bike,42:46.4,42:52.5,Racine Ave & 15th St,13304,Racine Ave & 15th St,13304,41.861267,-87.656625,41.861267,-87.656625,member
83D1D41B252447DB,classic_bike,48:21.1,56:51.8,Michigan Ave & 8th St,623,Michigan Ave & 8th St,623,41.872773,-87.623981,41.872773,-87.623981,casual
358ED720AFD7C8CB,classic_bike,15:05.4,16:09.2,Michigan Ave & 8th St,623,Michigan Ave & 8th St,623,41.872773,-87.623981,41.872773,-87.623981,casual
21541548CF3FF7D1,classic_bike,14:12.7,27:15.0,Woodlawn Ave & 55th St,TA1307000164,Woodlawn Ave & 55th St,TA1307000164,41.795264,-87.596471,41.795264,-87.596471,casual
D09E525EB019E3E8,electric_bike,29:09.3,43:54.2,Woodlawn Ave & 55th St,TA1307000164,Woodlawn Ave & 55th St,TA1307000164,41.795264,-87.596471,41.795264,-87.596471,casual
3AD12C150A88E79E,electric_bike,23:50.9,27:59.5,Racine Ave & Belmont Ave,TA1308000019,Racine Ave & Fullerton Ave,TA1306000026,41.939743,-87.658865,41.925566,-87.658416,casual
D36106CA93DC1B8C,electric_bike,29:43.3,37:16.6,Woodlawn Ave & 55th St,TA1307000164,Woodlawn Ave & 55th St,TA1307000164,41.795264,-87.596471,41.795264,-87.596471,casual
27064F31728CCFE3,classic_bike,05:00.3,11:18.2,Racine Ave & Fullerton Ave,TA1306000026,Racine Ave & Belmont Ave,TA1308000019,41.925566,-87.658416,41.939743,-87.658865,casual
2FA0F717FE44CBFC,electric_bike,54:17.2,16:33.4,Dusable Harbor,KA1503000064,Racine Ave & Belmont Ave,TA1308000019,41.88687527,-87.61284185,41.939743,-87.658865,member
91CA4C9E6F9244F8,electric_bike,29:44.5,32:33.3,Woodlawn Ave & 58th St,22002,Woodlawn Ave & 55th St,TA1307000164,41.789381,-87.596479,41.795264,-87.596471,member
75C473A31E8826EE,electric_bike,50:31.9,58:32.4,New St & Illinois St,TA1306000013,Milwaukee Ave & Grand Ave,13033,41.89084704,-87.61861682,41.891578,-87.648384,member
6AA10BF0999EFE93,electric_bike,55:50.2,03:22.8,New St & Illinois St,TA1306000013,Milwaukee Ave & Grand Ave,13033,41.89084704,-87.61861682,41.891578,-87.648384,member
6635BF7D26E33A91,electric_bike,09:36.1,12:20.8,Clifton Ave & Armitage Ave,TA1307000163,Racine Ave & Fullerton Ave,TA1306000026,41.918216,-87.656936,41.925566,-87.658416,member
A603CF3D12237FB8,classic_bike,17:52.0,29:19.4,Western Ave & Winnebago Ave,13068,Artesian Ave & Hubbard St,15664,41.91552,-87.687022,41.8895,-87.688257,member
D1F20AD76F5D2A13,classic_bike,21:01.3,34:40.5,Western Ave & Winnebago Ave,13068,Artesian Ave & Hubbard St,15664,41.91552,-87.687022,41.8895,-87.688257,member
6D4CE41139A77CD5,classic_bike,20:58.9,32:40.9,Western Ave & Winnebago Ave,13068,Artesian Ave & Hubbard St,15664,41.91552,-87.687022,41.8895,-87.688257,member
F8C41696DB2EECF8,electric_bike,31:54.2,42:22.9,Broadway & Cornelia Ave,13278,Racine Ave & Fullerton Ave,TA1306000026,41.945529,-87.646439,41.925566,-87.658416,member
C544AFB54FB96B3D,electric_bike,15:48.1,19:14.4,Ellis Ave & 58th St,TA1309000011,Woodlawn Ave & 55th St,TA1307000164,41.788746,-87.601334,41.795264,-87.596471,member
40493EA61BA93D5A,classic_bike,04:28.3,07:05.9,Clark St & Newport St,632,Sheffield Ave & Waveland Ave,TA1307000126,41.94454,-87.654678,41.949399,-87.654529,member
9C0A791AE3D9C957,classic_bike,46:09.6,51:36.7,Wabash Ave & Grand Ave,TA1307000117,Daley Center Plaza,TA1306000010,41.891466,-87.626761,41.884241,-87.629634,member
82FC46E4A8B33FC3,classic_bike,59:42.7,21:03.4,Wilton Ave & Diversey Pkwy*,chargingstx2,Michigan Ave & Pearson St,13034,41.932418,-87.652705,41.89766,-87.62351,member
34163BAD7D56481D,electric_bike,54:22.0,59:30.3,Clark St & Elm St,TA1307000039,Michigan Ave & Pearson St,13034,41.902973,-87.63128,41.89766,-87.62351,member
F9515A95F1F15C55,classic_bike,20:26.0,33:11.5,Clark St & Schiller St,TA1309000024,Daley Center Plaza,TA1306000010,41.907993,-87.631501,41.884241,-87.629634,member
AE908854A2691A89,classic_bike,14:54.8,18:57.7,Wabash Ave & Wacker Pl,TA1307000131,Daley Center Plaza,TA1306000010,41.886875,-87.62603,41.884241,-87.629634,member
A06D440C1A7C4DF8,electric_bike,46:06.3,53:47.2,Elizabeth St & Randolph St,23001,Daley Center Plaza,TA1306000010,41.884336,-87.658902,41.884241,-87.629634,member
36FFB0D7D087F41F,classic_bike,55:29.4,59:44.1,Southport Ave & Clybourn Ave,TA1309000030,Michigan Ave & Pearson St,13034,41.9215759,-87.6664335,41.89766,-87.62351,casual
EA38BB3B7F34BEE4,electric_bike,39:47.5,40:14.8,Western Ave & Fillmore St,644,Western Ave & Fillmore St,644,41.868563,-87.686234,41.868563,-87.686234,member
616584F4B6C0AFEF,electric_bike,38:02.0,38:32.2,Western Ave & Fillmore St,644,Western Ave & Fillmore St,644,41.868563,-87.686234,41.868563,-87.686234,member
AC96123562228851,electric_bike,14:59.8,33:44.3,Stockton Dr & Wrightwood Ave,13276,Daley Center Plaza,TA1306000010,41.93132,-87.638742,41.884241,-87.629634,member
D71EE11BC5A963AB,classic_bike,11:34.5,22:48.1,Sedgwick St & Schiller St,TA1307000143,Michigan Ave & Pearson St,13034,41.907626,-87.638566,41.89766,-87.62351,member
5E5E512A88BE5333,classic_bike,55:07.7,49:07.1,Dearborn Pkwy & Delaware Pl,TA1307000128,Clark St & Columbia Ave,RP-008,41.898969,-87.629912,42.00445063,-87.6724024,member
DDF68A146CABD59D,classic_bike,09:38.9,52:39.6,Dearborn Pkwy & Delaware Pl,TA1307000128,Clark St & Columbia Ave,RP-008,41.898969,-87.629912,42.00445063,-87.6724024,member
9F63DE220166E70B,electric_bike,49:11.2,55:38.8,Broadway & Belmont Ave,13277,Southport Ave & Roscoe St,13071,41.940106,-87.645451,41.943739,-87.66402,member
65C7DB3CBC7910D7,classic_bike,19:11.2,29:50.6,Wabash Ave & Wacker Pl,TA1307000131,Franklin St & Jackson Blvd,TA1305000025,41.886875,-87.62603,41.87770796,-87.63532114,member
76C35525F4186613,electric_bike,25:59.0,33:23.6,Clark St & Wellington Ave,TA1307000136,W Armitage Ave & N Sheffield Ave,20254,41.93649682,-87.64753866,41.917805,-87.653449,member
EB80B2F04A0F600D,electric_bike,16:31.4,20:28.4,Ping Tom Park (East),20260,Halsted St & 18th St,13099,41.8579886,-87.6319447,41.85750568,-87.64599144,member
8959147BA615DDD2,electric_bike,58:10.1,09:29.5,Dearborn Pkwy & Delaware Pl,TA1307000128,W Armitage Ave & N Sheffield Ave,20254,41.898969,-87.629912,41.917805,-87.653449,member
A6CC6346E70BFBE6,classic_bike,50:52.2,00:54.9,Indiana Ave & Roosevelt Rd,SL-005,Franklin St & Jackson Blvd,TA1305000025,41.867888,-87.623041,41.87770796,-87.63532114,member
DA637BD117561ED1,classic_bike,02:06.8,11:44.8,Indiana Ave & Roosevelt Rd,SL-005,Franklin St & Jackson Blvd,TA1305000025,41.867888,-87.623041,41.87770796,-87.63532114,member
56E9D9BE79879B68,classic_bike,05:36.6,15:14.6,Indiana Ave & Roosevelt Rd,SL-005,Franklin St & Jackson Blvd,TA1305000025,41.867888,-87.623041,41.87770796,-87.63532114,member
B35E12DC25F94FCA,classic_bike,35:30.2,45:07.0,Indiana Ave & Roosevelt Rd,SL-005,Franklin St & Jackson Blvd,TA1305000025,41.867888,-87.623041,41.87770796,-87.63532114,member
9D25840100EB3DEC,classic_bike,25:15.2,38:07.2,Lincoln Ave & Sunnyside Ave,TA1307000156,Damen Ave & Foster Ave,KA1504000149,41.963004,-87.684781,41.97581098,-87.6795099,member
79CE85341A5DFA80,electric_bike,09:59.2,15:03.4,Franklin St & Lake St,TA1307000111,Dearborn St & Van Buren St,624,41.885837,-87.6355,41.876268,-87.629155,member
630223B69E717E0A,electric_bike,30:24.3,36:08.1,Morgan St & Lake St*,chargingstx4,Franklin St & Jackson Blvd,TA1305000025,41.88549171,-87.65228927,41.87770796,-87.63532114,member
74B768AEE097323A,classic_bike,08:21.5,18:45.3,Canal St & Harrison St,13326,Michigan Ave & Ida B Wells Dr,TA1305000010,41.874255,-87.639573,41.876203,-87.624464,member
E09F190E2C23F571,classic_bike,13:52.8,26:51.7,Clark St & Chicago Ave,13303,Dearborn St & Van Buren St,624,41.89675,-87.63089,41.876268,-87.629155,member
84CE731301AAB846,classic_bike,00:46.7,09:46.0,Wolcott (Ravenswood) Ave & Montrose Ave,TA1307000144,Leavitt St & Lawrence Ave,TA1309000015,41.961406,-87.676169,41.968885,-87.684001,member
5BCCEED8E4AE82C3,classic_bike,10:14.8,23:21.3,Wolcott (Ravenswood) Ave & Montrose Ave,TA1307000144,Broadway & Berwyn Ave,13109,41.961406,-87.676169,41.978361,-87.659789,member
B28001DBED8EBE53,classic_bike,18:34.8,24:15.3,Michigan Ave & 8th St,623,Millennium Park,13008,41.872773,-87.623981,41.8810317,-87.62408432,member
09F1B03C55669DE8,classic_bike,39:17.0,51:43.6,St. Louis Ave & Fullerton Ave,KA1504000090,Stave St & Armitage Ave,13266,41.9248156,-87.71449506,41.917741,-87.691392,member
D2A2934379C6D6AB,electric_bike,06:41.1,07:05.7,Sheffield Ave & Wellington Ave,TA1307000052,Sheffield Ave & Wellington Ave,TA1307000052,41.93625348,-87.6526621,41.93625348,-87.6526621,member
C39613331414595B,classic_bike,56:42.2,22:28.2,Clark St & Elm St,TA1307000039,Wabash Ave & 9th St,TA1309000010,41.902973,-87.63128,41.870769,-87.625734,member
9935283AA21B274D,electric_bike,40:29.7,46:36.6,Albany Ave & Bloomingdale Ave,15655,Milwaukee Ave & Wabansia Ave,13243,41.91402671,-87.70512646,41.912616,-87.681391,member
1958C9EDB234F80E,electric_bike,13:05.8,19:09.5,Franklin St & Monroe St,TA1309000007,Loomis St & Jackson Blvd,13206,41.880317,-87.635185,41.877945,-87.662007,member
0BF04E6A9CC2EBC0,classic_bike,53:37.6,04:49.7,Carpenter St & Huron St,13196,Clinton St & Jackson Blvd,638,41.894556,-87.653449,41.87831661,-87.64098108,member
D1C4DAF7B723C38F,classic_bike,54:22.6,04:02.8,Carpenter St & Huron St,13196,Clinton St & Jackson Blvd,638,41.894556,-87.653449,41.87831661,-87.64098108,member
B2C9BEAE16D4E748,electric_bike,03:29.7,09:18.0,Aberdeen St & Jackson Blvd,13157,Desplaines St & Kinzie St,TA1306000003,41.87772613,-87.65478743,41.88871604,-87.64444785,member
4D0DB150D657AC9F,electric_bike,42:38.0,50:52.7,Greenview Ave & Diversey Pkwy,13294,Richmond St & Diversey Ave,15645,41.93258963,-87.66593635,41.93190197,-87.70119513,member
9FE6EA86B3C7C3B3,electric_bike,26:37.5,43:16.8,Clark St & Drummond Pl,TA1307000142,Michigan Ave & Lake St,TA1305000011,41.931248,-87.644336,41.886022,-87.624398,member
ED52127A98ADECC1,classic_bike,09:58.2,15:40.1,Kingsbury St & Kinzie St,KA1503000043,Michigan Ave & Lake St,TA1305000011,41.88917683,-87.63850577,41.886022,-87.624398,member
1C5D1063D9A319D7,electric_bike,02:00.9,04:22.9,Clark St & Elm St,TA1307000039,Ritchie Ct & Banks St,KA1504000134,41.902973,-87.63128,41.906866,-87.626217,member
1CB7292AE12857B4,electric_bike,12:48.1,15:16.5,Halsted St & Roscoe St,TA1309000025,Wilton Ave & Belmont Ave,TA1307000134,41.9436315,-87.6490833,41.94023192,-87.65294373,member
FF13397612EDBB40,classic_bike,43:34.8,48:46.6,Southport Ave & Waveland Ave,13235,Lincoln Ave & Addison St,TA1309000050,41.948226,-87.6640712,41.946176,-87.673308,member
4B07F43841F6BCD9,electric_bike,20:37.5,26:20.3,Damen Ave & Clybourn Ave,13271,Damen Ave & Cortland St,13133,41.931931,-87.677856,41.915983,-87.677335,member
40B22811EDAA8BE9,electric_bike,20:37.8,25:35.6,Sangamon St & Washington Blvd,13409,Canal St & Madison St,13341,41.883165,-87.6511,41.882409,-87.639767,member
986BE92E30527404,electric_bike,39:37.5,51:09.8,Western Ave & Walton St,KA1504000103,Rush St & Superior St,15530,41.89841769,-87.68659602,41.89576475,-87.62590803,member
DEC014FFA46A46B3,classic_bike,37:16.8,41:04.4,Shore Dr & 55th St,TA1308000009,Lake Park Ave & 56th St,TA1309000063,41.795212,-87.580715,41.793242,-87.587782,member
D472BA32884D84ED,classic_bike,09:27.8,12:52.8,Woodlawn Ave & 58th St,22002,Lake Park Ave & 56th St,TA1309000063,41.789381,-87.596479,41.79161,-87.58748,member
4979B30E67E249F8,classic_bike,50:16.0,00:19.4,Calumet Ave & 18th St,13102,Delano Ct & Roosevelt Rd,KA1706005007,41.85761755,-87.61941075,41.867491,-87.63219,member
088419774BAF14FF,classic_bike,16:57.3,26:04.7,Calumet Ave & 18th St,13102,Delano Ct & Roosevelt Rd,KA1706005007,41.85761755,-87.61941075,41.867491,-87.63219,member
36C68E2E16797083,classic_bike,35:27.5,43:20.3,Calumet Ave & 18th St,13102,Delano Ct & Roosevelt Rd,KA1706005007,41.85761755,-87.61941075,41.867491,-87.63219,member
5195C6C85CE8552E,classic_bike,22:29.3,32:56.6,Clark St & Schiller St,TA1309000024,Bissell St & Armitage Ave*,chargingstx1,41.907993,-87.631501,41.91829556,-87.65218332,member
5D1A66E8D0ED11FC,classic_bike,08:38.0,22:10.0,State St & Pearson St,TA1307000061,Canal St & Madison St,13341,41.897448,-87.628722,41.882409,-87.639767,member
5925D685277350D9,classic_bike,28:16.5,33:20.1,Green St & Randolph St*,chargingstx3,Elizabeth St & Randolph St,23001,41.88360166,-87.64862671,41.884336,-87.658902,member
951C5E6EAE818BEB,electric_bike,32:28.0,37:18.7,Aberdeen St & Jackson Blvd,13157,Elizabeth St & Randolph St,23001,41.87772613,-87.65478743,41.884336,-87.658902,member
B798E91DC2AD7F78,electric_bike,37:41.7,51:26.8,Larrabee St & Kingsbury St,TA1306000009,Southport Ave & Wrightwood Ave,TA1307000113,41.897764,-87.642884,41.928773,-87.663913,member
583DB1DF69A4F791,electric_bike,07:39.1,14:33.7,Larrabee St & Kingsbury St,TA1306000009,Franklin St & Lake St,TA1307000111,41.897764,-87.642884,41.885837,-87.6355,member
9B86EA5CE29D422D,electric_bike,41:27.9,53:17.6,Larrabee St & Kingsbury St,TA1306000009,Southport Ave & Wrightwood Ave,TA1307000113,41.897764,-87.642884,41.928773,-87.663913,member
3B5A33B09CB785A2,classic_bike,08:22.1,18:34.2,Kingsbury St & Kinzie St,KA1503000043,Franklin St & Lake St,TA1307000111,41.88917683,-87.63850577,41.885837,-87.6355,member
44F86847EDF89259,electric_bike,20:02.9,31:57.7,Larrabee St & Webster Ave,13193,Franklin St & Lake St,TA1307000111,41.921822,-87.64414,41.885837,-87.6355,member
7E47A840B402DA61,electric_bike,13:02.1,20:31.2,Clark St & Elm St,TA1307000039,Franklin St & Lake St,TA1307000111,41.902973,-87.63128,41.885837,-87.6355,member
EA61FFF7DA99B177,classic_bike,54:34.1,07:53.6,Clark St & Elm St,TA1307000039,Franklin St & Lake St,TA1307000111,41.902973,-87.63128,41.885837,-87.6355,member
446F80C48A7C2BCD,electric_bike,23:36.1,32:33.2,Indiana Ave & Roosevelt Rd,SL-005,Franklin St & Lake St,TA1307000111,41.867888,-87.623041,41.885837,-87.6355,member
A0569A517AA25F55,electric_bike,18:01.7,29:42.5,Campbell Ave & Augusta Blvd,410,Southport Ave & Wrightwood Ave,TA1307000113,41.899578,-87.689497,41.928773,-87.663913,member
8027A00CB25D314B,classic_bike,01:26.5,11:27.7,Dearborn St & Adams St,TA1305000005,Franklin St & Lake St,TA1307000111,41.87935636,-87.62979104,41.885837,-87.6355,member
C688CA88ECFFFA7C,electric_bike,58:43.1,04:40.1,Dearborn St & Erie St,13045,Franklin St & Lake St,TA1307000111,41.893992,-87.629318,41.885837,-87.6355,member
8B774B9642EEE613,electric_bike,05:53.0,12:07.6,Dearborn St & Erie St,13045,Franklin St & Lake St,TA1307000111,41.893992,-87.629318,41.885837,-87.6355,member
417CF0BD89853EA7,electric_bike,59:36.1,06:44.4,Dearborn St & Erie St,13045,Franklin St & Lake St,TA1307000111,41.893992,-87.629318,41.885837,-87.6355,member
D06F19260CBE74D4,classic_bike,22:35.1,28:45.2,State St & Randolph St,TA1305000029,Franklin St & Lake St,TA1307000111,41.88462107,-87.62783423,41.885837,-87.6355,member
3A6E66DCC92A29E3,electric_bike,53:28.4,09:21.3,Lincoln Ave & Roscoe St*,chargingstx5,Campbell Ave & North Ave,13257,41.94335025,-87.67066777,41.910535,-87.689556,member
B099B829140F9EDC,classic_bike,59:16.2,26:44.9,Albany Ave & Bloomingdale Ave,15655,Rockwell St & Eastwood Ave,KA1504000093,41.91402671,-87.70512646,41.96590014,-87.69363849,member
319AB97568FA314F,classic_bike,20:39.3,23:08.4,Wabash Ave & Grand Ave,TA1307000117,Wabash Ave & Grand Ave,TA1307000117,41.891466,-87.626761,41.891466,-87.626761,member
40F630523ACA10FB,classic_bike,51:54.3,55:31.0,Halsted St & Polk St,TA1307000121,Halsted St & Polk St,TA1307000121,41.87184,-87.64664,41.87184,-87.64664,member
FA43528B4636972C,electric_bike,06:01.7,20:26.4,Southport Ave & Clybourn Ave,TA1309000030,Halsted St & Fulton St,23003,41.9215759,-87.6664335,41.886871,-87.648089,member
CF844C17B6B6D740,electric_bike,49:33.7,55:30.9,Loomis St & Jackson Blvd,13206,Halsted St & Polk St,TA1307000121,41.877945,-87.662007,41.87184,-87.64664,member
E51B91C20A28DF1E,classic_bike,22:35.3,10:05.0,Emerald Ave & 31st St,TA1309000055,Wallace St & 35th St,TA1308000045,41.838198,-87.645143,41.83070705,-87.64125533,member
809CC5E2972802F1,classic_bike,30:39.3,33:27.7,Burling St & Diversey Pkwy,13208,Wilton Ave & Diversey Pkwy*,chargingstx2,41.93314,-87.64776,41.932418,-87.652705,member
2BD33E87CB16D990,electric_bike,02:07.3,07:49.6,Clinton St & Washington Blvd,WL-012,Halsted St & Fulton St,23003,41.88338,-87.64117,41.886871,-87.648089,member
C1DD0695D59D6EC9,electric_bike,58:08.6,01:51.4,Clinton St & Washington Blvd,WL-012,Halsted St & Fulton St,23003,41.88337469,-87.64177859,41.886871,-87.648089,member
A4B621BEDBFAB1F8,electric_bike,11:55.2,17:34.2,Racine Ave & 18th St,13164,Halsted St & Polk St,TA1307000121,41.8583996,-87.6564226,41.87184,-87.64664,member
EAB8276935C1BB4F,electric_bike,19:12.9,28:51.0,Halsted St & Archer Ave,TA1308000013,Halsted St & Polk St,TA1307000121,41.847203,-87.646795,41.87184,-87.64664,member
74F53397039BF9B8,classic_bike,44:35.9,56:07.2,Sheridan Rd & Irving Park Rd,13063,Lincoln Ave & Belle Plaine Ave,TA1309000026,41.954245,-87.654406,41.95600355,-87.68016145,member
055522AFE94E3865,electric_bike,24:40.3,29:16.2,Daley Center Plaza,TA1306000010,Federal St & Polk St,SL-008,41.884241,-87.629634,41.87207763,-87.62954377,member
EFFD7A492781ECD3,electric_bike,26:56.0,32:32.4,Daley Center Plaza,TA1306000010,Federal St & Polk St,SL-008,41.884241,-87.629634,41.87207763,-87.62954377,member
A9A5D27477245CB5,electric_bike,43:44.2,48:17.7,Daley Center Plaza,TA1306000010,Federal St & Polk St,SL-008,41.884241,-87.629634,41.87207763,-87.62954377,member
9695598BF1F7C430,electric_bike,07:57.6,12:40.3,Daley Center Plaza,TA1306000010,Federal St & Polk St,SL-008,41.884241,-87.629634,41.87207763,-87.62954377,member
CB6EE87C0E006859,electric_bike,16:23.2,22:18.0,Daley Center Plaza,TA1306000010,Federal St & Polk St,SL-008,41.884241,-87.629634,41.87207763,-87.62954377,member
4D9AC05D3E7DD091,classic_bike,36:54.6,45:58.4,Clinton St & Roosevelt Rd,WL-008,Federal St & Polk St,SL-008,41.86711778,-87.64108796,41.87207763,-87.62954377,member
DCCDC0091AF2EF6C,classic_bike,18:49.6,22:20.7,DuSable Lake Shore Dr & Belmont Ave,TA1309000049,DuSable Lake Shore Dr & Diversey Pkwy,TA1309000039,41.940775,-87.639192,41.932588,-87.636427,member
46BE11FA35319038,classic_bike,59:45.7,02:04.8,Clark St & Wellington Ave,TA1307000136,Broadway & Barry Ave,13137,41.93649682,-87.64753866,41.93758232,-87.64409781,member
9180149C80C10C49,classic_bike,12:56.4,19:43.7,Lincoln Ave & Fullerton Ave,TA1309000058,Broadway & Barry Ave,13137,41.92416103,-87.64638036,41.93758232,-87.64409781,member
6C254DAD19C0C516,classic_bike,51:51.4,14:06.9,Michigan Ave & Oak St,13042,Broadway & Barry Ave,13137,41.90096039,-87.62377664,41.93758232,-87.64409781,member
35260E01210154E9,classic_bike,24:10.3,27:55.3,Broadway & Cornelia Ave,13278,Broadway & Barry Ave,13137,41.945529,-87.646439,41.93758232,-87.64409781,member
F879A633B34746D2,classic_bike,33:20.3,37:43.8,Broadway & Cornelia Ave,13278,Broadway & Barry Ave,13137,41.945529,-87.646439,41.93758232,-87.64409781,member
2CAFA7E155BF8769,classic_bike,05:45.5,08:45.5,Ogden Ave & Chicago Ave,TA1305000020,Noble St & Milwaukee Ave,13290,41.89636246,-87.65406127,41.9007,-87.662607,member
9FBDAF54B475A6CA,classic_bike,04:12.0,06:42.7,Clark St & Drummond Pl,TA1307000142,Broadway & Barry Ave,13137,41.931248,-87.644336,41.93758232,-87.64409781,member
1C29D22B82836BD0,classic_bike,56:27.7,19:22.3,Cannon Dr & Fullerton Ave,13124,Broadway & Barry Ave,13137,41.92675599,-87.63442878,41.93758232,-87.64409781,member
9A3D9614E6AE2101,electric_bike,19:21.7,27:10.0,Cannon Dr & Fullerton Ave,13124,Broadway & Barry Ave,13137,41.92675599,-87.63442878,41.93758232,-87.64409781,member
9F455D5ED387B0EF,classic_bike,21:44.3,33:03.6,Cannon Dr & Fullerton Ave,13124,Broadway & Barry Ave,13137,41.92675599,-87.63442878,41.93758232,-87.64409781,member
C55E99DA7C356018,electric_bike,41:54.4,44:56.2,DuSable Lake Shore Dr & Diversey Pkwy,TA1309000039,Broadway & Barry Ave,13137,41.93259871,-87.63639593,41.93758232,-87.64409781,member
D5D375BB38BA8265,classic_bike,02:17.9,07:43.1,Broadway & Barry Ave,13137,Broadway & Barry Ave,13137,41.93758232,-87.64409781,41.93758232,-87.64409781,member
F89E9D8F2375AD54,classic_bike,11:28.2,17:18.4,LaSalle Dr & Huron St,KP1705001026,Sedgwick St & Huron St,TA1307000062,41.894877,-87.632326,41.894666,-87.638437,member
B84F66D820A3A902,classic_bike,42:30.5,46:55.6,Eckhart Park,13289,Ogden Ave & Chicago Ave,TA1305000020,41.89637337,-87.66098386,41.89636246,-87.65406127,member
26B0ABDCC3E7E10D,classic_bike,23:44.0,37:00.8,Clarendon Ave & Leland Ave,TA1307000119,Pine Grove Ave & Waveland Ave,TA1307000150,41.967968,-87.650001,41.94947274,-87.64645278,member
9AA534E0D00A385C,classic_bike,53:51.0,57:58.8,Dearborn St & Adams St,TA1305000005,LaSalle St & Adams St,KA1503000034,41.87935636,-87.62979104,41.87934437,-87.63198522,member
48E2C1EED97A6873,classic_bike,25:17.7,28:41.7,Franklin St & Illinois St,RN-,Sedgwick St & Huron St,TA1307000062,41.89102331,-87.63547987,41.894666,-87.638437,member
73CA4690F4062281,electric_bike,17:24.9,26:18.4,Rush St & Superior St,15530,LaSalle St & Adams St,KA1503000034,41.89579904,-87.62610781,41.87934437,-87.63198522,member
4225A1CD1D14CE32,electric_bike,02:54.2,11:44.6,Clinton St & Washington Blvd,WL-012,State St & Pearson St,TA1307000061,41.88338,-87.64117,41.897448,-87.628722,member
36076228F75210DD,electric_bike,01:32.5,08:13.0,Clinton St & Washington Blvd,WL-012,State St & Pearson St,TA1307000061,41.88338,-87.64117,41.897448,-87.628722,member
3D447B335D5A4025,electric_bike,02:58.4,10:43.0,Clinton St & Washington Blvd,WL-012,State St & Pearson St,TA1307000061,41.88338,-87.64117,41.897448,-87.628722,member
AB41023A9DD23FEE,electric_bike,48:27.7,10:39.6,Kilbourn Ave & Belden Ave,21359,Western Ave & Division St,13241,41.922369,-87.739024,41.902893,-87.687275,member
55CBEAF0DEF945B6,electric_bike,52:12.5,57:03.6,Wells St & Hubbard St,TA1307000151,Sedgwick St & Huron St,TA1307000062,41.889906,-87.634266,41.894666,-87.638437,member
806297AD677C012B,electric_bike,17:54.0,34:55.5,Damen Ave & Clybourn Ave,13271,Pine Grove Ave & Waveland Ave,TA1307000150,41.931931,-87.677856,41.94947274,-87.64645278,member
20B9374EACC11479,classic_bike,21:50.6,35:06.6,Western Ave & Winnebago Ave,13068,Ogden Ave & Chicago Ave,TA1305000020,41.91552,-87.687022,41.89636246,-87.65406127,member
1852BDACC30FAC58,electric_bike,12:28.8,18:39.1,Wilton Ave & Belmont Ave,TA1307000134,Pine Grove Ave & Waveland Ave,TA1307000150,41.94023192,-87.65294373,41.94947274,-87.64645278,member
955F95459BA4CC92,classic_bike,42:34.9,44:50.0,Pine Grove Ave & Irving Park Rd,TA1308000022,Pine Grove Ave & Waveland Ave,TA1307000150,41.954383,-87.648043,41.94947274,-87.64645278,member
AEA8AD5D5D36FB20,electric_bike,44:21.1,49:14.6,Desplaines St & Kinzie St,TA1306000003,Sedgwick St & Huron St,TA1307000062,41.88871604,-87.64444785,41.894666,-87.638437,member
AC487B12D02B2FD2,classic_bike,21:39.5,27:34.6,Desplaines St & Kinzie St,TA1306000003,Sedgwick St & Huron St,TA1307000062,41.88871604,-87.64444785,41.894666,-87.638437,member
57266C3DDAC9FD0C,electric_bike,16:22.3,35:49.6,Milwaukee Ave & Rockwell St,13242,Sedgwick St & Huron St,TA1307000062,41.92026115,-87.69262898,41.894666,-87.638437,member
DFE0E12A07E7FD86,classic_bike,08:48.8,15:10.3,Franklin St & Lake St,TA1307000111,Sedgwick St & Huron St,TA1307000062,41.885837,-87.6355,41.894666,-87.638437,member
34C198873DA488DB,electric_bike,10:13.8,12:57.7,Clark St & Wellington Ave,TA1307000136,Broadway & Belmont Ave,13277,41.93649682,-87.64753866,41.940106,-87.645451,member
10EAE670C0CD950A,electric_bike,26:37.3,32:06.4,Southport Ave & Waveland Ave,13235,Southport Ave & Wellington Ave,TA1307000006,41.948226,-87.6640712,41.93577462,-87.66360015,member
8225636C3E02F372,electric_bike,54:22.5,33:49.6,Shore Dr & 55th St,TA1308000009,Cornell Ave & Hyde Park Blvd,KA1503000007,41.795212,-87.580715,41.802406,-87.586924,member
0EC45575306ABDAB,classic_bike,47:09.2,13:53.9,Clark St & Armitage Ave,13146,Clark St & Wellington Ave,TA1307000136,41.918306,-87.636282,41.93649682,-87.64753866,member
B181FF97D32A5E61,classic_bike,00:03.7,18:24.6,Clark St & Armitage Ave,13146,Clark St & Wellington Ave,TA1307000136,41.918306,-87.636282,41.93649682,-87.64753866,member
F2325C1A8D1AFFAF,classic_bike,36:19.1,51:24.9,Clark St & Wellington Ave,TA1307000136,Clark St & Armitage Ave,13146,41.93649682,-87.64753866,41.918306,-87.636282,member
6D9597B395C9966D,classic_bike,19:47.6,37:33.3,California Ave & Granville Ave,23104,Dodge Ave & Mulford St,662,41.9941803,-87.6995596,42.023463,-87.699595,member
C5790DCEC8715A93,classic_bike,22:09.8,40:12.5,Benson Ave & Church St,596,Dodge Ave & Mulford St,662,42.048214,-87.683485,42.023463,-87.699595,member
1E43EF2C6FD41D39,electric_bike,47:31.4,56:40.8,Damen Ave & Cortland St,13133,Damen Ave & Melrose Ave,13143,41.91599846,-87.67723477,41.9406,-87.6785,member
0953F0ACC77A1822,electric_bike,08:02.0,19:40.1,Clark St & North Ave,13128,Clark St & Newport St,632,41.911974,-87.631942,41.94454,-87.654678,member
A2B299B1FD38834C,classic_bike,52:29.6,00:26.1,Lincoln Ave & Melrose St,TA1309000042,Clark St & Newport St,632,41.9406,-87.669435,41.94454,-87.654678,member
58D747DD737C92A4,electric_bike,51:04.8,54:53.2,Broadway & Berwyn Ave,13109,Sheridan Rd & Argyle St,13059,41.978361,-87.659789,41.97328682,-87.65475959,member
9ECB172931CE49B0,classic_bike,55:39.5,01:37.0,Broadway & Berwyn Ave,13109,Sheridan Rd & Argyle St,13059,41.978361,-87.659789,41.97328682,-87.65475959,member
F97969119CBA77A3,classic_bike,23:26.7,42:47.7,Southport Ave & Belmont Ave,13229,Clark St & Newport St,632,41.93947775,-87.66374767,41.94454,-87.654678,member
7104D52D85057E31,electric_bike,03:14.1,12:24.2,Clark St & Grace St,TA1307000127,Sheridan Rd & Argyle St,13059,41.95078,-87.659172,41.97328682,-87.65475959,member
8FC7B664F21E840E,electric_bike,38:31.4,45:17.3,Central Park Ave & Elbridge Ave,15644,Avondale Ave & Irving Park Rd,15624,41.93533728,-87.71688929,41.953393,-87.732002,member
FADB47A29C62D877,electric_bike,34:49.3,41:46.9,Central Park Ave & Elbridge Ave,15644,Avondale Ave & Irving Park Rd,15624,41.93533728,-87.71688929,41.953393,-87.732002,member
ECD12ACEE13C3C6C,classic_bike,35:24.4,45:41.5,Central Park Ave & Elbridge Ave,15644,Avondale Ave & Irving Park Rd,15624,41.93533728,-87.71688929,41.953393,-87.732002,member
155A1E5065503C60,electric_bike,34:49.7,37:35.5,Major Ave & Addison St,23166,Central Ave & Roscoe St,21396,41.9458348,-87.7691848,41.942275,-87.76695,member
28A3B370D7696D39,classic_bike,44:27.0,49:44.0,Benson Ave & Church St,596,Chicago Ave & Sheridan Rd,E008,42.048214,-87.683485,42.050491,-87.677821,member
3721CF7FD11B0764,classic_bike,52:24.3,55:56.5,Benson Ave & Church St,596,Chicago Ave & Sheridan Rd,E008,42.048214,-87.683485,42.050491,-87.677821,member
73F1810F1A121512,classic_bike,37:49.9,40:51.2,Campbell Ave & North Ave,13257,Western Ave & Winnebago Ave,13068,41.910535,-87.689556,41.91552,-87.687022,member
098D4EBD2FE7C286,electric_bike,13:59.1,21:46.5,Morgan St & Polk St,TA1307000130,Wolcott Ave & Polk St,TA1309000064,41.871737,-87.65103,41.871262,-87.673688,member
93187084BE6A4CE6,classic_bike,31:55.4,41:09.8,Morgan St & Polk St,TA1307000130,Wolcott Ave & Polk St,TA1309000064,41.871737,-87.65103,41.871262,-87.673688,member
0417EA4C381D6804,classic_bike,26:21.1,37:05.4,Morgan St & Polk St,TA1307000130,Wolcott Ave & Polk St,TA1309000064,41.871737,-87.65103,41.871262,-87.673688,member
56A98BB6E56C22B4,classic_bike,55:45.0,00:47.7,Sheridan Rd & Noyes St (NU),604,Chicago Ave & Sheridan Rd,E008,42.058239,-87.677432,42.050491,-87.677821,member
FD8AFA35C95CF28F,classic_bike,57:07.2,01:33.6,Sheridan Rd & Noyes St (NU),604,Chicago Ave & Sheridan Rd,E008,42.058239,-87.677432,42.050491,-87.677821,member
CB3093F7069567D6,classic_bike,30:48.9,44:01.9,Western Ave & Walton St,KA1504000103,Wolcott Ave & Polk St,TA1309000064,41.89841769,-87.68659602,41.871262,-87.673688,member
AEA0A6F318A3F101,classic_bike,30:22.2,44:51.9,Leavitt St & Chicago Ave,18058,Wolcott Ave & Polk St,TA1309000064,41.895501,-87.682017,41.871262,-87.673688,member
5E46529D752C5497,classic_bike,35:09.1,47:08.9,Leavitt St & Chicago Ave,18058,Wolcott Ave & Polk St,TA1309000064,41.895501,-87.682017,41.871262,-87.673688,member
C8492F9F62090D62,classic_bike,25:15.0,40:45.6,Canal St & Adams St,13011,Calumet Ave & 18th St,13102,41.879255,-87.639904,41.85761755,-87.61941075,member
75BAA78604B24366,classic_bike,41:47.9,54:52.6,Halsted St & Polk St,TA1307000121,Wolcott Ave & Polk St,TA1309000064,41.87184,-87.64664,41.871262,-87.673688,member
C9CF21966E076CDC,electric_bike,36:13.0,45:46.5,Ashland Ave & Division St,13061,Western Ave & Winnebago Ave,13068,41.90345,-87.667747,41.91552,-87.687022,member
DA6D20760DA67772,classic_bike,38:34.4,47:38.7,Western Ave & Congress Pkwy,15668,Wolcott Ave & Polk St,TA1309000064,41.87474885,-87.68644528,41.871262,-87.673688,member
A87ECB0F4D60793D,classic_bike,56:51.0,26:04.2,Wilton Ave & Diversey Pkwy,TA1306000014,Western Ave & Winnebago Ave,13068,41.932418,-87.652705,41.91552,-87.687022,member
2AB2E36E089B505A,electric_bike,11:58.2,16:29.3,Wabash Ave & Roosevelt Rd,TA1305000002,Calumet Ave & 18th St,13102,41.867227,-87.625961,41.85761755,-87.61941075,member
54FB40D97D157530,electric_bike,21:34.0,23:43.3,Paulina St & Flournoy St,KA1504000104,Wolcott Ave & Polk St,TA1309000064,41.87306109,-87.66913489,41.871262,-87.673688,member
93A75FBF7D8B7DD2,electric_bike,51:15.1,02:05.1,Franklin St & Lake St,TA1307000111,Calumet Ave & 18th St,13102,41.885837,-87.6355,41.85761755,-87.61941075,member
3669677151A4E5AC,electric_bike,48:22.7,55:13.4,Ogden Ave & Race Ave,13194,Wolcott Ave & Polk St,TA1309000064,41.891795,-87.658751,41.871262,-87.673688,member
D2EFD83AA0A5235D,classic_bike,03:08.6,11:41.9,Walsh Park,18067,Western Ave & Winnebago Ave,13068,41.91461,-87.667968,41.91552,-87.687022,member
74980A948E995DFD,electric_bike,49:31.5,58:25.0,Western Ave & Walton St,KA1504000103,Western Ave & Winnebago Ave,13068,41.89841769,-87.68659602,41.91552,-87.687022,member
A4BD793C5E95D546,classic_bike,35:07.2,48:30.3,Sheffield Ave & Willow St,TA1306000032,Western Ave & Winnebago Ave,13068,41.913688,-87.652855,41.91552,-87.687022,member
0CE89BCAB98D9C39,electric_bike,23:27.8,33:17.5,Ravenswood Ave & Irving Park Rd,TA1307000149,Clark St & Bryn Mawr Ave,KA1504000151,41.95469,-87.67393,41.983593,-87.669154,member
17D04116C3730E9A,classic_bike,27:32.2,34:37.6,Clark St & Leland Ave,TA1309000014,Clark St & Bryn Mawr Ave,KA1504000151,41.96708784,-87.66729087,41.983593,-87.669154,member
A778E48DC4317240,electric_bike,32:55.0,36:51.2,Hoyne Ave & Balmoral Ave,655,Clark St & Bryn Mawr Ave,KA1504000151,41.97986817,-87.68192422,41.983593,-87.669154,member
1CC94A729F5549D9,electric_bike,40:34.1,45:56.9,Hoyne Ave & Balmoral Ave,655,Clark St & Bryn Mawr Ave,KA1504000151,41.979851,-87.681932,41.983593,-87.669154,member
1459089481D8004C,classic_bike,12:21.6,14:18.7,Halsted St & Willow St,TA1307000166,Sheffield Ave & Willow St,TA1306000032,41.913865,-87.648755,41.913688,-87.652855,member
0C98F126A7090F1F,electric_bike,13:01.5,20:20.3,Elston Ave & Cortland St,TA1305000039,Sheffield Ave & Willow St,TA1306000032,41.91643343,-87.66674638,41.913688,-87.652855,member
B7245280A6B70C86,classic_bike,11:02.9,32:36.2,Damen Ave & Melrose Ave,13143,Clark St & Bryn Mawr Ave,KA1504000151,41.9406,-87.6785,41.983593,-87.669154,member
9C9C585C416A2DCA,classic_bike,20:17.4,34:13.4,Orleans St & Chestnut St (NEXT Apts),620,Halsted St & Wrightwood Ave,TA1309000061,41.898203,-87.637536,41.929143,-87.649077,member
032C3D73B1A2197E,classic_bike,12:40.6,48:51.8,Green St & Randolph St*,chargingstx3,Wells St & Evergreen Ave,TA1308000049,41.88360166,-87.64862671,41.906724,-87.63483,member
F5F6AFE75F4CDD40,electric_bike,03:41.0,07:57.9,Clybourn Ave & Division St,TA1307000115,Halsted St & Clybourn Ave,331,41.904613,-87.640552,41.909668,-87.648128,member
F4F2BC0AB0704725,classic_bike,29:54.1,41:10.6,Kedzie Ave & Foster Ave,KA1504000128,Kedzie Ave & Bryn Mawr Ave,KA1504000167,41.975672,-87.709261,41.98222976,-87.70888656,member
0CC97CAD000E6296,electric_bike,20:15.0,30:03.7,Shore Dr & 55th St,TA1308000009,Public Rack - Langley Ave & 49th St,1012,41.795212,-87.580715,41.805218,-87.609076,member
D3208E9348DAD5F9,electric_bike,10:40.0,15:30.2,Clark St & Elm St,TA1307000039,Halsted St & Clybourn Ave,331,41.902973,-87.63128,41.909668,-87.648128,member
C69E26322E6C979E,electric_bike,41:26.3,49:22.7,Clark St & Elm St,TA1307000039,Halsted St & Clybourn Ave,331,41.902973,-87.63128,41.909668,-87.648128,member
9F2CD9B1E23F34F9,classic_bike,45:15.7,53:57.0,Kildare Ave & Montrose Ave,KA1706005015,Albany Ave & Montrose Ave,15621,41.96108,-87.73569,41.961041,-87.705866,member
C1FDD3D35B0DB130,classic_bike,02:08.7,25:08.3,Michigan Ave & 8th St,623,Streeter Dr & Grand Ave,13022,41.872773,-87.623981,41.892278,-87.612043,member
350D4B22EFE869D7,classic_bike,59:12.4,33:52.7,Michigan Ave & 8th St,623,Streeter Dr & Grand Ave,13022,41.872773,-87.623981,41.892278,-87.612043,member
20C45A64FFE427A3,electric_bike,32:56.9,35:40.5,Sedgwick St & North Ave,TA1307000038,Halsted St & Clybourn Ave,331,41.910983,-87.638525,41.909668,-87.648128,member
EBA36657B08B737E,electric_bike,19:18.9,53:48.2,Larrabee St & Division St,KA1504000079,Albany Ave & Montrose Ave,15621,41.90348607,-87.64335349,41.961041,-87.705866,member
A2E3057672CC0F33,classic_bike,16:34.0,52:02.1,Streeter Dr & Grand Ave,13022,Streeter Dr & Grand Ave,13022,41.892278,-87.612043,41.892278,-87.612043,member
821CDC410600E0B0,classic_bike,20:16.5,46:07.5,Streeter Dr & Grand Ave,13022,Streeter Dr & Grand Ave,13022,41.892278,-87.612043,41.892278,-87.612043,member
F73393A8BBE43F45,classic_bike,55:17.7,19:24.0,Streeter Dr & Grand Ave,13022,Streeter Dr & Grand Ave,13022,41.892278,-87.612043,41.892278,-87.612043,member
6E354AB392871891,electric_bike,46:01.5,46:35.1,Halsted St & Clybourn Ave,331,Halsted St & Clybourn Ave,331,41.909668,-87.648128,41.909668,-87.648128,member
1F31CB8188BF16B3,classic_bike,16:12.2,31:06.6,Mies van der Rohe Way & Chicago Ave,13338,Halsted St & Clybourn Ave,331,41.89694463,-87.62175769,41.909668,-87.648128,member
7F0A3B16F16F15C5,classic_bike,57:01.6,01:37.3,New St & Illinois St,TA1306000013,Streeter Dr & Grand Ave,13022,41.89084704,-87.61861682,41.892278,-87.612043,member
37AE5DFC1FC90F13,classic_bike,33:04.7,49:07.6,State St & Randolph St,TA1305000029,Streeter Dr & Grand Ave,13022,41.88462107,-87.62783423,41.892278,-87.612043,member
83922157CF27B50A,electric_bike,32:12.0,39:08.3,Greenview Ave & Fullerton Ave,TA1307000001,Damen Ave & Wellington Ave,13268,41.92533,-87.6658,41.93588,-87.67842,member
AA569F3F78946735,electric_bike,37:15.9,45:17.8,Green St & Randolph St*,chargingstx3,Halsted St & Clybourn Ave,331,41.88360166,-87.64862671,41.909668,-87.648128,casual
0862B203D29652F7,electric_bike,47:03.5,55:11.5,Wells St & Institute Pl,22001,Clinton St & Washington Blvd,WL-012,41.89737986,-87.63442039,41.88338,-87.64117,member
296FDE94A09E7B27,electric_bike,14:20.3,18:15.8,Wabash Ave & Grand Ave,TA1307000117,Mies van der Rohe Way & Chicago Ave,13338,41.891466,-87.626761,41.89694463,-87.62175769,member
0051CD3A314321B1,electric_bike,48:27.2,52:22.3,Wabash Ave & Grand Ave,TA1307000117,Mies van der Rohe Way & Chicago Ave,13338,41.891466,-87.626761,41.89694463,-87.62175769,member
C222D124C0366B75,electric_bike,57:53.0,01:18.9,Clark St & Elm St,TA1307000039,DuSable Lake Shore Dr & North Blvd,LF-005,41.902973,-87.63128,41.911722,-87.626804,member
31742F27F82171E7,classic_bike,46:28.3,52:55.9,Clark St & Elm St,TA1307000039,DuSable Lake Shore Dr & North Blvd,LF-005,41.902973,-87.63128,41.911722,-87.626804,member
D15E9E27264471EC,classic_bike,00:25.5,30:08.5,Wacker Dr & Washington St,KA1503000072,Milwaukee Ave & Rockwell St,13242,41.88314336,-87.63724208,41.92033,-87.69309,member
C7BAFBDFB375B97B,classic_bike,44:29.7,55:00.7,Kostner Ave & Adams St,545,Kostner Ave & Adams St,545,41.877917,-87.735737,41.877917,-87.735737,member
BC0BE03C1F1845BB,electric_bike,00:30.2,08:48.4,Southport Ave & Clybourn Ave,TA1309000030,Milwaukee Ave & Rockwell St,13242,41.9215759,-87.6664335,41.92019556,-87.6926592,member
629F0920B896F657,classic_bike,13:49.6,25:42.5,Cottage Grove Ave & 78th St,575,Ellis Ave & 83rd St,584,41.753174,-87.605026,41.744123,-87.599034,member
59B635587B342004,classic_bike,58:59.2,10:24.2,Stave St & Armitage Ave,13266,Troy St & North Ave,15653,41.917741,-87.691392,41.9097693,-87.70528049,member
7FC0DA14B4988559,electric_bike,07:46.5,14:31.6,Mies van der Rohe Way & Chicago Ave,13338,DuSable Lake Shore Dr & North Blvd,LF-005,41.89694463,-87.62175769,41.911722,-87.626804,member
E93C098038EEEF57,electric_bike,54:29.9,00:46.6,Leavitt St/North Ave,PI00003,Troy St & North Ave,15653,41.910077,-87.682306,41.9097693,-87.70528049,casual
D6AC0252573A4E0B,electric_bike,01:22.8,08:42.8,Milwaukee Ave & Wabansia Ave,13243,Milwaukee Ave & Rockwell St,13242,41.912616,-87.681391,41.92033,-87.69309,member
B8743C2D80493CE6,classic_bike,27:48.0,33:17.4,Clark St & Armitage Ave,13146,DuSable Lake Shore Dr & North Blvd,LF-005,41.918306,-87.636282,41.911722,-87.626804,member
2CE7C48ECA233148,classic_bike,14:27.9,33:22.5,Wood St & Hubbard St,13432,Milwaukee Ave & Rockwell St,13242,41.889715,-87.671966,41.92019556,-87.6926592,member
977F273F53622837,classic_bike,56:18.3,07:27.9,Lincoln Park Conservatory,LP-,DuSable Lake Shore Dr & North Blvd,LF-005,41.92393131,-87.63582453,41.911722,-87.626804,member
7F2B13D074B01C6F,electric_bike,11:24.1,26:54.3,Ashland Ave & Augusta Blvd,13248,Canal St & Jackson Blvd,13138,41.89948118,-87.66976321,41.878125,-87.639968,member
9F75EEAE3D3E32BB,electric_bike,57:02.3,05:32.4,Michigan Ave & 18th St,13150,Halsted St & 18th St,13099,41.85786474,-87.62434471,41.85750568,-87.64599144,member
A45446EB160B0587,electric_bike,04:37.6,09:23.6,Sheffield Ave & Willow St,TA1306000032,W Armitage Ave & N Sheffield Ave,20254,41.913688,-87.652855,41.917805,-87.653449,casual
7B1C171D5D2742A0,classic_bike,33:13.8,46:13.8,Loomis St & Jackson Blvd,13206,Franklin St & Jackson Blvd,TA1305000025,41.877945,-87.662007,41.87770796,-87.63532114,member
BC378BE62A9D70D6,classic_bike,05:06.6,10:47.1,Clinton St & Lake St,13021,Franklin St & Jackson Blvd,TA1305000025,41.885637,-87.641823,41.87770796,-87.63532114,member
A23438EF55B0A5CB,classic_bike,38:01.9,40:55.7,Clinton St & 18th St,TA1307000044,Halsted St & 18th St,13099,41.85795,-87.640826,41.85750568,-87.64599144,member
386C13E139099DF9,classic_bike,54:54.9,58:55.9,Financial Pl & Ida B Wells Dr,SL-010,Franklin St & Jackson Blvd,TA1305000025,41.87502363,-87.63309404,41.87770796,-87.63532114,member
6879A56B5E21D0ED,classic_bike,37:11.9,28:18.5,Dearborn St & Erie St,13045,McClurg Ct & Ohio St,TA1306000029,41.893992,-87.629318,41.89259212,-87.61728913,member
0AC8B30A3D8C1216,classic_bike,25:27.9,30:25.9,Wabash Ave & Grand Ave,TA1307000117,McClurg Ct & Ohio St,TA1306000029,41.891466,-87.626761,41.89259212,-87.61728913,member
8936FD4860CA9C08,classic_bike,58:23.1,03:31.9,Wabash Ave & Grand Ave,TA1307000117,McClurg Ct & Ohio St,TA1306000029,41.891466,-87.626761,41.89259212,-87.61728913,member
939364CA5C22589F,classic_bike,34:53.8,49:07.4,LaSalle Dr & Huron St,KP1705001026,Desplaines St & Jackson Blvd,15539,41.894877,-87.632326,41.8781189,-87.6439476,member
34BDE28AE2241B73,electric_bike,45:37.6,59:38.3,Calumet Ave & 18th St,13102,McClurg Ct & Ohio St,TA1306000029,41.85761755,-87.61941075,41.89259212,-87.61728913,member
309A37469BADECA0,electric_bike,48:40.3,54:13.5,Conservatory Dr & Lake St,518,McClurg Ct & Ohio St,TA1306000029,41.885502,-87.716866,41.89259212,-87.61728913,casual
98F54BA10FA16A3F,electric_bike,14:22.6,26:40.5,Canal St & Jackson Blvd,13138,Indiana Ave & 26th St,TA1307000005,41.878125,-87.639968,41.845687,-87.622481,member
5258E1B6E5927757,electric_bike,01:44.9,13:54.5,Canal St & Jackson Blvd,13138,Indiana Ave & 26th St,TA1307000005,41.878125,-87.639968,41.845687,-87.622481,member
655FAE5856C0587F,electric_bike,20:51.5,28:15.4,Talman Ave & Addison St,15632,Kimball Ave & Belmont Ave,KA150400009X,41.94663583,-87.69461476,41.93939395,-87.71206766,member
43F4B1A83CDD2B63,classic_bike,56:28.6,08:15.2,Financial Pl & Ida B Wells Dr,SL-010,Desplaines St & Jackson Blvd,15539,41.87502363,-87.63309404,41.8781189,-87.6439476,member
E497F96591C093B2,classic_bike,50:40.0,02:38.0,Southport Ave & Wrightwood Ave,TA1307000113,Ashland Ave & Belle Plaine Ave,13249,41.928773,-87.663913,41.956057,-87.668835,member
D91B0054826342B6,classic_bike,11:27.6,21:04.9,Rhodes Ave & 32nd St,13215,Indiana Ave & 26th St,TA1307000005,41.836208,-87.613533,41.845687,-87.622481,member
6EC3F01C2E598226,electric_bike,01:55.2,07:48.0,Kingsbury St & Erie St,13265,Stetson Ave & South Water St,TA1308000029,41.8939139,-87.6417358,41.886835,-87.62232,member
1E1BEA441D1C8AE5,classic_bike,53:16.7,55:51.7,Clinton St & Madison St,TA1305000032,Desplaines St & Jackson Blvd,15539,41.88275197,-87.64119029,41.8781189,-87.6439476,member
BBCC3357AB198F36,classic_bike,41:48.9,50:28.1,Michigan Ave & Oak St,13042,McClurg Ct & Ohio St,TA1306000029,41.90096039,-87.62377664,41.89259212,-87.61728913,casual
4978A691668857B2,electric_bike,13:59.4,18:44.9,Sheridan Rd & Irving Park Rd,13063,Ashland Ave & Belle Plaine Ave,13249,41.954245,-87.654406,41.956057,-87.668835,casual
F1B7B48E095BF00F,electric_bike,41:27.4,49:58.2,Orleans St & Elm St,TA1306000006,McClurg Ct & Ohio St,TA1306000029,41.902924,-87.637715,41.89259212,-87.61728913,member
FD81939F0D327147,electric_bike,35:57.8,40:11.2,Avers Ave & Belmont Ave,15640,Kimball Ave & Belmont Ave,KA150400009X,41.939408,-87.723574,41.93939395,-87.71206766,member
05D5C06127805597,classic_bike,37:34.5,47:41.2,Kingsbury St & Kinzie St,KA1503000043,Desplaines St & Jackson Blvd,15539,41.88917683,-87.63850577,41.8781189,-87.6439476,member
9957F3D8B9FD6191,classic_bike,37:50.0,50:38.4,Wacker Dr & Washington St,KA1503000072,McClurg Ct & Ohio St,TA1306000029,41.88314336,-87.63724208,41.89259212,-87.61728913,member
E13AEE7D8694D76D,electric_bike,29:45.3,35:31.9,Damen Ave & Cullerton St,13089,Wood St & Taylor St (Temp),13285,41.85496652,-87.67569959,41.86926522,-87.67373085,member
3785E5FD8D8D4594,electric_bike,34:46.3,46:10.8,State St & Randolph St,TA1305000029,Wells St & Concord Ln,TA1308000050,41.88462107,-87.62783423,41.912133,-87.634656,member
14EA4C940F5B16C2,electric_bike,47:20.8,56:00.7,Sangamon St & Washington Blvd,13409,Michigan Ave & Jackson Blvd,TA1309000002,41.883165,-87.6511,41.8777679,-87.624164,member
C8A7CB75D7BCC8D6,electric_bike,54:15.4,10:14.3,Franklin St & Lake St,TA1307000111,Racine Ave & Fullerton Ave,TA1306000026,41.885837,-87.6355,41.925566,-87.658416,member
EB211A9DF605AD8B,electric_bike,17:30.8,22:36.4,Wilton Ave & Diversey Pkwy*,chargingstx2,Racine Ave & Fullerton Ave,TA1306000026,41.932418,-87.652705,41.925566,-87.658416,member
1596486C9FFDBB1C,classic_bike,02:36.4,09:05.7,University Ave & 59th St,22003,Woodlawn Ave & 55th St,TA1307000164,41.787878,-87.598906,41.795264,-87.596471,member
4FE606477E51C488,electric_bike,24:25.6,26:48.1,Monticello Ave & Irving Park Rd,KA1504000139,Drake Ave & Addison St,KA1504000142,41.95400484,-87.71912818,41.947326,-87.717582,member
2A0E0F63C9141C10,classic_bike,19:50.5,23:43.8,Monticello Ave & Irving Park Rd,KA1504000139,Drake Ave & Addison St,KA1504000142,41.95400484,-87.71912818,41.947326,-87.717582,member
0F58E63E79DDBAEC,electric_bike,46:30.0,57:01.6,Aberdeen St & Jackson Blvd,13157,Canal St & Monroe St,13056,41.87772613,-87.65478743,41.8829056,-87.6397409,member
2A62ECBD0C57C0C2,classic_bike,06:17.6,46:19.2,Greenview Ave & Jarvis Ave,520,Eastlake Ter & Howard St,523,42.015962,-87.66857,42.0192025,-87.66430289,member
70D314A4B63FBBC8,classic_bike,46:50.0,49:32.7,Greenview Ave & Fullerton Ave,TA1307000001,Racine Ave & Fullerton Ave,TA1306000026,41.92533,-87.6658,41.925566,-87.658416,member
2CDF6C6331304911,electric_bike,30:43.4,32:41.0,Canal St & Adams St,13011,Canal St & Monroe St,13056,41.879255,-87.639904,41.8829056,-87.6397409,member
C04D74574D5F70BD,electric_bike,26:32.1,29:03.2,Ellis Ave & 55th St,KA1504000076,Woodlawn Ave & 55th St,TA1307000164,41.79430062,-87.60144977,41.795264,-87.596471,member
86FBF704B8A47F84,electric_bike,39:50.2,42:42.5,Ellis Ave & 55th St,KA1504000076,Woodlawn Ave & 55th St,TA1307000164,41.79430062,-87.60144977,41.795264,-87.596471,member
1731AC158113BB4F,classic_bike,46:18.3,48:53.6,Ellis Ave & 55th St,KA1504000076,Woodlawn Ave & 55th St,TA1307000164,41.79430062,-87.60144977,41.795264,-87.596471,member
8011DA0D5759AF82,classic_bike,05:47.7,12:32.8,Millennium Park,13008,Michigan Ave & 8th St,623,41.8810317,-87.62408432,41.872773,-87.623981,member
DF89FA604C8E6617,electric_bike,12:40.0,24:06.1,Shields Ave & 28th Pl,15443,Michigan Ave & 8th St,623,41.842733,-87.635491,41.872773,-87.623981,member
6486253FA933331B,classic_bike,18:32.7,23:14.5,Wilton Ave & Diversey Pkwy,TA1306000014,Racine Ave & Fullerton Ave,TA1306000026,41.932418,-87.652705,41.925566,-87.658416,member
C14615B91BEAE4FA,electric_bike,45:08.9,48:47.1,Franklin St & Adams St (Temp),TA1309000008,Canal St & Monroe St,13056,41.87943409,-87.63550401,41.8829056,-87.6397409,member
AAC4F901F15EFE5C,classic_bike,02:38.6,41:51.7,DuSable Lake Shore Dr & Monroe St,13300,Woodlawn Ave & 55th St,TA1307000164,41.880958,-87.616743,41.795264,-87.596471,member
7C7B28BA788BFF2E,classic_bike,44:36.7,50:29.2,Michigan Ave & 14th St,TA1307000124,Michigan Ave & 8th St,623,41.864059,-87.623727,41.872773,-87.623981,member
DB4212DA7E6715B3,classic_bike,00:52.5,05:04.6,Michigan Ave & Jackson Blvd,TA1309000002,Michigan Ave & 8th St,623,41.8777679,-87.624164,41.872773,-87.623981,member
CDB3FACA580982C0,electric_bike,19:07.3,35:49.3,Clark St & Lake St,KA1503000012,Canal St & Monroe St,13056,41.88602083,-87.63087606,41.8829056,-87.6397409,member
5BC082DF741BAFF5,classic_bike,25:57.4,31:57.8,Halsted St & 21st St,13162,Racine Ave & 15th St,13304,41.85377981,-87.64660299,41.861267,-87.656625,member
38F19EF683070D1B,classic_bike,04:27.3,10:28.7,Halsted St & 21st St,13162,Racine Ave & 15th St,13304,41.85377981,-87.64660299,41.861267,-87.656625,member
311C6344A9DEC2FB,electric_bike,55:11.7,59:04.1,Public Rack - Hyde Park Blvd & 55th St,768,Woodlawn Ave & 55th St,TA1307000164,41.795,-87.584113,41.795264,-87.596471,member
1BB16AF9B0C5453D,electric_bike,52:10.7,56:06.8,Public Rack - Hyde Park Blvd & 55th St,768,Woodlawn Ave & 55th St,TA1307000164,41.795,-87.584113,41.795264,-87.596471,member
401D836CCA504624,electric_bike,31:29.5,34:39.6,Southport Ave & Waveland Ave,13235,Sheffield Ave & Waveland Ave,TA1307000126,41.948226,-87.6640712,41.949399,-87.654529,member
09B39985EE17E7FD,classic_bike,36:42.8,39:44.6,Honore St & Division St,TA1305000034,Damen Ave & Thomas St (Augusta Blvd),TA1307000070,41.903119,-87.673935,41.901315,-87.677409,member
D626654F18E20564,electric_bike,50:01.8,53:55.2,Western Ave & Walton St,KA1504000103,Damen Ave & Thomas St (Augusta Blvd),TA1307000070,41.89841769,-87.68659602,41.901315,-87.677409,casual
E8C09264CA5D9709,classic_bike,03:41.3,26:14.1,Clarendon Ave & Gordon Ter,13379,Sheffield Ave & Waveland Ave,TA1307000126,41.95786652,-87.64950514,41.949399,-87.654529,member
44BCC750164E1D3C,electric_bike,19:28.8,58:46.6,State St & Chicago Ave,21544,Monticello Ave & Lawrence Ave,23108,41.8966172,-87.62857854,41.968204,-87.719547,member
E1423B3CCF84E402,classic_bike,31:56.9,37:06.2,Pine Grove Ave & Irving Park Rd,TA1308000022,Sheffield Ave & Waveland Ave,TA1307000126,41.954383,-87.648043,41.949399,-87.654529,member
42860CFA08E05D52,electric_bike,02:13.0,09:33.9,Milwaukee Ave & Wabansia Ave,13243,Damen Ave & Thomas St (Augusta Blvd),TA1307000070,41.912616,-87.681391,41.901315,-87.677409,member
6D68C5C590753A08,electric_bike,21:53.4,30:41.7,Damen Ave & Thomas St (Augusta Blvd),TA1307000070,Damen Ave & Thomas St (Augusta Blvd),TA1307000070,41.901315,-87.677409,41.901315,-87.677409,member
26F601A4F5A4766B,classic_bike,23:58.0,27:36.0,Damen Ave & Pierce Ave,TA1305000041,Damen Ave & Division St,13136,41.9088152,-87.6771937,41.903266,-87.678435,member
F3746F987DF531F6,classic_bike,13:14.8,17:05.8,Leavitt St & North Ave,TA1308000005,Damen Ave & Division St,13136,41.910533,-87.682308,41.903266,-87.678435,member
3CEE8231A73539EF,electric_bike,08:05.0,14:12.5,Damen Ave & Cortland St,13133,Damen Ave & Division St,13136,41.915983,-87.677335,41.903266,-87.678435,member
CB9AC2A9BE1D11A4,classic_bike,28:25.6,31:59.3,Southport Ave & Wrightwood Ave,TA1307000113,Lincoln Ave & Diversey Pkwy,TA1307000064,41.928773,-87.663913,41.932225,-87.658617,member
45F1ED853B6B0428,electric_bike,20:29.0,24:10.5,Western Ave & Division St,13241,Damen Ave & Division St,13136,41.902893,-87.687275,41.903266,-87.678435,member
12461374290AC5E8,electric_bike,28:21.5,40:38.1,Talman Ave & Addison St,15632,Broadway & Sheridan Rd,13323,41.94663583,-87.69461476,41.952833,-87.649993,member
8E9B5196D47EDDBD,classic_bike,51:17.1,30:39.4,Racine Ave & Congress Pkwy,TA1306000025,Broadway & Sheridan Rd,13323,41.87464,-87.65703,41.952833,-87.649993,member
B8852E3AC6024F1F,electric_bike,52:20.1,53:03.6,Orleans St & Hubbard St,636,Orleans St & Hubbard St,636,41.890028,-87.636618,41.890028,-87.636618,member
F01D55A91CAF0E2D,electric_bike,51:45.3,08:47.9,Western Ave & Leland Ave,TA1307000140,Lincoln Ave & Diversey Pkwy,TA1307000064,41.9663998,-87.68870428,41.932225,-87.658617,member
2F3ECB6AA968B167,electric_bike,36:23.1,41:25.6,Elizabeth St & Fulton St,13197,Eckhart Park,13289,41.886827,-87.658937,41.89637337,-87.66098386,member
B9B3F3DB1CF631D2,classic_bike,11:29.3,40:11.1,Lincoln Park Conservatory,LP-,Millennium Park,13008,41.92393131,-87.63582453,41.8810317,-87.62408432,member
A6F00AF9B70C16F2,electric_bike,03:41.2,11:18.5,Elston Ave & Cortland St,TA1305000039,Damen Ave & Division St,13136,41.91643343,-87.66674638,41.903266,-87.678435,member
4644BDCC349B589A,electric_bike,02:49.2,21:28.2,Mies van der Rohe Way & Chicago Ave,13338,Lincoln Ave & Diversey Pkwy,TA1307000064,41.89694463,-87.62175769,41.932225,-87.658617,member
7E99FA6625AC388D,electric_bike,16:14.3,23:59.4,Oak Park & Wellington,318,Nordica Ave & Medill Ave,21378,41.934586,-87.7959613,41.92227,-87.80202,member
7CCAB44D431429FA,classic_bike,12:45.2,27:46.4,Clark St & Winnemac Ave,TA1309000035,Broadway & Sheridan Rd,13323,41.97334764,-87.66785547,41.952833,-87.649993,member
0AEFB735F714D0A9,electric_bike,28:59.4,31:56.1,Ashland Ave & Division St,13061,Damen Ave & Division St,13136,41.90345,-87.667747,41.903266,-87.678435,member
211D3102C587BB78,electric_bike,44:24.9,53:15.7,Sedgwick St & Huron St,TA1307000062,Daley Center Plaza,TA1306000010,41.894666,-87.638437,41.884241,-87.629634,member
FAA9D62DDEEB6F91,classic_bike,33:22.2,37:51.5,LaSalle St & Jackson Blvd,TA1309000004,Daley Center Plaza,TA1306000010,41.878166,-87.631929,41.884241,-87.629634,member
58F712F95C94D6CA,classic_bike,47:19.6,03:40.6,Ashland Ave & Grand Ave,13434,Michigan Ave & Pearson St,13034,41.891072,-87.666611,41.89766,-87.62351,member
4495413C47466275,classic_bike,05:00.6,12:19.5,Canal St & Adams St,13011,Daley Center Plaza,TA1306000010,41.879255,-87.639904,41.884241,-87.629634,member
526BF61074013678,electric_bike,17:37.9,19:14.7,State St & Chicago Ave,21544,Michigan Ave & Pearson St,13034,41.8966172,-87.62857854,41.89766,-87.62351,member
2457DACE375A2DE0,classic_bike,10:49.3,23:40.4,Franklin St & Monroe St,TA1309000007,Michigan Ave & Pearson St,13034,41.880317,-87.635185,41.89766,-87.62351,member
1CD0437E1341A739,classic_bike,16:09.7,33:12.3,Elston Ave & Cortland St,TA1305000039,Michigan Ave & Pearson St,13034,41.91643343,-87.66674638,41.89766,-87.62351,member
6C7FE4BE35008ED1,electric_bike,11:58.5,14:11.3,Dearborn St & Erie St,13045,Michigan Ave & Pearson St,13034,41.893992,-87.629318,41.89766,-87.62351,member
167550F67916F389,electric_bike,57:58.1,05:00.4,Wabash Ave & 9th St,TA1309000010,Daley Center Plaza,TA1306000010,41.870769,-87.625734,41.884241,-87.629634,member
9C5786469FA236F8,classic_bike,53:25.6,02:25.3,Clark St & Wellington Ave,TA1307000136,Southport Ave & Roscoe St,13071,41.93649682,-87.64753866,41.943739,-87.66402,member
61A1B5D66D87B27A,electric_bike,47:12.7,51:37.5,Financial Pl & Ida B Wells Dr,SL-010,Daley Center Plaza,TA1306000010,41.87502363,-87.63309404,41.884241,-87.629634,member
C5A7401431DE2110,electric_bike,22:44.0,25:06.5,Clark St & Schreiber Ave,KA1504000156,Clark St & Columbia Ave,RP-008,41.999245,-87.671249,42.00445063,-87.6724024,member
AB95364A0599A4E8,electric_bike,28:44.4,30:22.2,Southport Ave & Waveland Ave,13235,Southport Ave & Roscoe St,13071,41.948226,-87.6640712,41.943739,-87.66402,member
8C03FE6C91EF2A8F,classic_bike,29:57.3,33:39.2,Wacker Dr & Washington St,KA1503000072,Daley Center Plaza,TA1306000010,41.88314336,-87.63724208,41.884241,-87.629634,member
3790A4666C89B4C1,electric_bike,50:01.2,57:48.0,Damen Ave & Wellington Ave,13268,Southport Ave & Roscoe St,13071,41.93588,-87.67842,41.943739,-87.66402,member
354D0452A702D05E,classic_bike,08:21.1,29:11.5,Halsted St & Dickens Ave,13192,Michigan Ave & Pearson St,13034,41.919936,-87.64883,41.89766,-87.62351,member
E3443B602CAE4799,electric_bike,14:33.7,23:42.9,California Ave & Touhy Ave,24151,Michigan Ave & Pearson St,13034,42.0120368,-87.7004371,41.89766,-87.62351,member
32C11E67F5C0C51A,classic_bike,24:16.3,35:21.9,Mies van der Rohe Way & Chestnut St,15529,Daley Center Plaza,TA1306000010,41.89858665,-87.62191523,41.884241,-87.629634,member
D168010512BE8D5A,classic_bike,33:56.9,41:30.4,Clark St & Chicago Ave,13303,Daley Center Plaza,TA1306000010,41.89675,-87.63089,41.884241,-87.629634,member
75CEF53F9CBF02D4,classic_bike,32:30.5,36:02.5,Columbus Dr & Randolph St,13263,Daley Center Plaza,TA1306000010,41.884728,-87.619521,41.884241,-87.629634,member
936D63061D0B3301,classic_bike,26:57.6,52:26.4,Halsted St & 21st St,13162,Daley Center Plaza,TA1306000010,41.85377981,-87.64660299,41.884241,-87.629634,member
4F4D290AD4C71C67,electric_bike,10:18.7,19:39.8,Elizabeth St & Randolph St,23001,Daley Center Plaza,TA1306000010,41.884336,-87.658902,41.884241,-87.629634,member
04B038A3B0E9376B,classic_bike,20:30.4,31:09.7,Elizabeth St & Randolph St,23001,Daley Center Plaza,TA1306000010,41.884336,-87.658902,41.884241,-87.629634,member
68B802B490B07C7D,electric_bike,13:23.6,16:25.4,State St & Harrison St,SL-007,Daley Center Plaza,TA1306000010,41.874053,-87.627716,41.884241,-87.629634,member
EE452B7688782104,electric_bike,44:22.5,06:36.1,Paulina Ave & North Ave,TA1305000037,Southport Ave & Roscoe St,13071,41.90985465,-87.66993016,41.943739,-87.66402,member
B91C72CB41CB9844,electric_bike,43:10.0,57:40.9,Wood St & Augusta Blvd,657,Daley Center Plaza,TA1306000010,41.89916217,-87.67220867,41.884241,-87.629634,member
06519A5DA58026A6,electric_bike,34:03.3,53:01.3,Sheridan Rd & Columbia Ave,660,Southport Ave & Roscoe St,13071,42.004583,-87.661406,41.943739,-87.66402,member
BDA3B830E19A9D8F,electric_bike,10:17.3,15:37.9,Western Blvd & 48th Pl,594,Hoyne Ave & 47th St,KA1504000091,41.805661,-87.683392,41.808227,-87.67718,member
509CE16C6F81836A,classic_bike,01:07.2,15:50.1,Kedzie Ave & Foster Ave,KA1504000128,Sacramento Ave & Pratt Blvd,24147,41.975672,-87.709261,42.00404,-87.70473,member
F171359F30010DDF,classic_bike,43:33.1,48:08.9,Clybourn Ave & Division St,TA1307000115,Clark St & Elm St,TA1307000039,41.904613,-87.640552,41.902973,-87.63128,member
9509A07902C7E4B9,classic_bike,55:17.8,38:31.1,Clybourn Ave & Division St,TA1307000115,Clark St & Elm St,TA1307000039,41.904613,-87.640552,41.902973,-87.63128,member
60044A355445B309,classic_bike,36:51.9,40:38.5,Clybourn Ave & Division St,TA1307000115,Clark St & Elm St,TA1307000039,41.904613,-87.640552,41.902973,-87.63128,member
4BC0129DF7736A77,classic_bike,13:42.1,22:04.2,Halsted St & Wrightwood Ave,TA1309000061,Sheffield Ave & Wellington Ave,TA1307000052,41.929143,-87.649077,41.93625348,-87.6526621,member
EB02BF21FFB74446,classic_bike,48:17.6,57:56.1,Wolcott (Ravenswood) Ave & Montrose Ave,TA1307000144,Western Ave & Leland Ave,TA1307000140,41.961406,-87.676169,41.9663998,-87.68870428,member
3E5DDBDDA41A9634,classic_bike,29:05.8,35:37.9,Wabash Ave & Grand Ave,TA1307000117,Clark St & Elm St,TA1307000039,41.891466,-87.626761,41.902973,-87.63128,member
8DD9A89380883A09,classic_bike,30:42.4,37:56.1,Wabash Ave & Grand Ave,TA1307000117,Clark St & Elm St,TA1307000039,41.891466,-87.626761,41.902973,-87.63128,member
1C0105B2ACCCB147,classic_bike,27:52.2,35:00.6,Wabash Ave & Grand Ave,TA1307000117,Clark St & Elm St,TA1307000039,41.891466,-87.626761,41.902973,-87.63128,member
D06DBDE544FB2E08,classic_bike,29:32.7,36:42.3,Wabash Ave & Grand Ave,TA1307000117,Clark St & Elm St,TA1307000039,41.891466,-87.626761,41.902973,-87.63128,member
9A8434CE0849CAB7,classic_bike,31:46.9,38:49.9,Wabash Ave & Grand Ave,TA1307000117,Clark St & Elm St,TA1307000039,41.891466,-87.626761,41.902973,-87.63128,member
EE8A679546EF706B,classic_bike,37:54.2,44:00.8,Wabash Ave & Grand Ave,TA1307000117,Clark St & Elm St,TA1307000039,41.891466,-87.626761,41.902973,-87.63128,member
8D7276191F76F76A,classic_bike,00:02.9,12:28.3,Morgan St & Polk St,TA1307000130,Laflin St & Cullerton St,13307,41.871737,-87.65103,41.85491458,-87.66355991,member
A34B98ACCA6D1206,classic_bike,57:02.1,11:57.2,Michigan Ave & Washington St,13001,Clark St & Elm St,TA1307000039,41.88398406,-87.62468398,41.902973,-87.63128,member
2EA4924232D8A1AD,classic_bike,44:27.7,02:48.9,Eastlake Ter & Howard St,523,Sheridan Rd & Noyes St (NU),604,42.0192025,-87.66430289,42.058239,-87.677432,member
9E28DD1DDEB175B5,classic_bike,29:23.9,45:28.5,Eastlake Ter & Howard St,523,Sheridan Rd & Noyes St (NU),604,42.0192025,-87.66430289,42.058239,-87.677432,member
B152DB76FEC87F32,classic_bike,57:06.2,13:17.0,Eastlake Ter & Howard St,523,Sheridan Rd & Noyes St (NU),604,42.0192025,-87.66430289,42.058239,-87.677432,member
6E7E5682356DA115,electric_bike,36:20.3,53:42.7,Dearborn Pkwy & Delaware Pl,TA1307000128,Stave St & Armitage Ave,13266,41.898969,-87.629912,41.917741,-87.691392,member
F3A661A180C1C0BE,classic_bike,31:56.4,34:34.4,Michigan Ave & Washington St,13001,State St & Randolph St,TA1305000029,41.88398406,-87.62468398,41.88462107,-87.62783423,member
87E5417DC628A78D,classic_bike,41:10.1,51:11.1,Larrabee St & Kingsbury St,TA1306000009,State St & Randolph St,TA1305000029,41.897764,-87.642884,41.88462107,-87.62783423,member
21BD7EE0B9057709,electric_bike,02:36.2,10:19.9,State St & Randolph St,TA1305000029,State St & Randolph St,TA1305000029,41.88462107,-87.62783423,41.88462107,-87.62783423,member
589D79DDCF99C246,electric_bike,49:05.7,49:06.8,State St & Randolph St,TA1305000029,State St & Randolph St,TA1305000029,41.88462107,-87.62783423,41.88462107,-87.62783423,member
21560198A6CCAF09,electric_bike,37:47.9,42:21.0,State St & Randolph St,TA1305000029,State St & Randolph St,TA1305000029,41.88462107,-87.62783423,41.88462107,-87.62783423,casual
91DE277C01DB1A01,classic_bike,36:37.1,42:36.0,State St & Randolph St,TA1305000029,State St & Randolph St,TA1305000029,41.88462107,-87.62783423,41.88462107,-87.62783423,casual
131E733F66D96223,electric_bike,56:05.0,01:16.5,Stave St & Armitage Ave,13266,Stave St & Armitage Ave,13266,41.917741,-87.691392,41.917741,-87.691392,casual
95F67431FC567598,electric_bike,16:00.3,25:15.7,Stave St & Armitage Ave,13266,Stave St & Armitage Ave,13266,41.917741,-87.691392,41.917741,-87.691392,casual
01D489F0E6EACCF4,electric_bike,55:28.7,07:11.3,Ogden Ave & Chicago Ave,TA1305000020,Stave St & Armitage Ave,13266,41.89636246,-87.65406127,41.917741,-87.691392,member
8DEE16C2C803E3F5,electric_bike,37:04.8,52:11.5,Milwaukee Ave & Wabansia Ave,13243,State St & Randolph St,TA1305000029,41.912616,-87.681391,41.88462107,-87.62783423,member
4C691ABF77A04389,classic_bike,40:18.3,14:53.2,DuSable Lake Shore Dr & Monroe St,13300,State St & Randolph St,TA1305000029,41.880958,-87.616743,41.88462107,-87.62783423,member
D11E4CB829935F85,classic_bike,09:05.6,28:18.2,Michigan Ave & 18th St,13150,State St & Randolph St,TA1305000029,41.857926,-87.624336,41.88462107,-87.62783423,member
9F1736359AEB4262,electric_bike,07:15.9,23:14.9,Southport Ave & Belmont Ave,13229,Stave St & Armitage Ave,13266,41.93947775,-87.66374767,41.917741,-87.691392,member
DFBBD3AD0DDE6325,electric_bike,42:15.2,46:13.2,Spaulding Ave & Armitage Ave,15650,Stave St & Armitage Ave,13266,41.91710803,-87.71022096,41.917741,-87.691392,member
16379BF9C412DE42,classic_bike,45:16.8,08:00.8,Michigan Ave & Lake St,TA1305000011,Stave St & Armitage Ave,13266,41.886022,-87.624398,41.917741,-87.691392,member
FC4BDBE87934BFFC,classic_bike,09:27.4,22:27.8,Damen Ave & Grand Ave,TA1308000006,Stave St & Armitage Ave,13266,41.89239445,-87.67688513,41.917741,-87.691392,casual
B880D94CAC8FDA34,classic_bike,03:40.1,07:06.2,Columbus Dr & Randolph St,13263,State St & Randolph St,TA1305000029,41.884728,-87.619521,41.88462107,-87.62783423,member
B6735B3EDD0838F2,classic_bike,06:07.4,09:03.6,Columbus Dr & Randolph St,13263,State St & Randolph St,TA1305000029,41.884728,-87.619521,41.88462107,-87.62783423,member
E4FCA2FA454CA7F2,classic_bike,32:54.3,37:04.1,Columbus Dr & Randolph St,13263,State St & Randolph St,TA1305000029,41.884728,-87.619521,41.88462107,-87.62783423,member
F2EF00316DA8C1B1,classic_bike,32:40.6,47:10.7,Columbus Dr & Randolph St,13263,State St & Randolph St,TA1305000029,41.884728,-87.619521,41.88462107,-87.62783423,member
B45DFFEE9D99244B,classic_bike,29:47.1,33:38.2,Columbus Dr & Randolph St,13263,State St & Randolph St,TA1305000029,41.884728,-87.619521,41.88462107,-87.62783423,member
9801B813FE04C84D,electric_bike,44:41.0,52:19.1,Dearborn Pkwy & Delaware Pl,TA1307000128,State St & Randolph St,TA1305000029,41.8989073,-87.62994087,41.88462107,-87.62783423,member
DE12A15A20AE970A,classic_bike,21:12.2,26:12.7,Wabash Ave & Grand Ave,TA1307000117,State St & Randolph St,TA1305000029,41.891466,-87.626761,41.88462107,-87.62783423,member
A14671275628D6F1,classic_bike,31:52.7,37:02.0,Woodlawn Ave & 55th St,TA1307000164,Shore Dr & 55th St,TA1308000009,41.795264,-87.596471,41.795212,-87.580715,member
57CB6A0318C5A58E,classic_bike,43:44.7,54:28.7,Woodlawn Ave & 55th St,TA1307000164,Shore Dr & 55th St,TA1308000009,41.795264,-87.596471,41.795212,-87.580715,member
99380D9194B859C5,classic_bike,20:43.0,27:19.6,Green St & Randolph St*,chargingstx3,Clinton St & Jackson Blvd,638,41.88360166,-87.64862671,41.87831661,-87.64098108,member
74CE17A53A9B4558,electric_bike,35:36.1,38:04.4,Wabash Ave & Grand Ave,TA1307000117,Cityfront Plaza Dr & Pioneer Ct,13427,41.891466,-87.626761,41.890573,-87.622072,member
0F31F1698FD6C744,classic_bike,09:03.4,19:45.1,Larrabee St & Kingsbury St,TA1306000009,Clinton St & Jackson Blvd,638,41.897764,-87.642884,41.87831661,-87.64098108,member
535EB90AADF93835,classic_bike,17:02.2,19:32.5,Aberdeen St & Jackson Blvd,13157,Peoria St & Jackson Blvd,13158,41.87772613,-87.65478743,41.8776416,-87.64961779,member
8549B3BAFF9781A7,classic_bike,05:33.6,16:22.5,Larrabee St & Kingsbury St,TA1306000009,Clinton St & Jackson Blvd,638,41.897764,-87.642884,41.87831661,-87.64098108,member
BA12F28000670657,electric_bike,29:13.4,33:52.2,Kingsbury St & Kinzie St,KA1503000043,Clinton St & Jackson Blvd,638,41.88917683,-87.63850577,41.87831661,-87.64098108,member
D9EE244EA86F6970,classic_bike,16:38.5,49:18.8,Clark St & Wellington Ave,TA1307000136,Cityfront Plaza Dr & Pioneer Ct,13427,41.93649682,-87.64753866,41.890573,-87.622072,member
4F2FD997D8DED100,electric_bike,30:33.5,49:19.4,Clark St & Wellington Ave,TA1307000136,Cityfront Plaza Dr & Pioneer Ct,13427,41.93649682,-87.64753866,41.890573,-87.622072,member
8A0153FBA07C9F91,electric_bike,31:44.4,50:35.9,Clark St & Wellington Ave,TA1307000136,Cityfront Plaza Dr & Pioneer Ct,13427,41.93649682,-87.64753866,41.890573,-87.622072,member
0C639280F1BD91F6,classic_bike,25:26.4,28:28.1,Green St & Washington Blvd,13053,Peoria St & Jackson Blvd,13158,41.88318131,-87.64872462,41.8776416,-87.64961779,member
68682D51CA77E42E,electric_bike,52:26.0,57:20.7,Elizabeth St & Randolph St,23001,Green St & Madison St,TA1307000120,41.884336,-87.658902,41.88185933,-87.64926374,member
C7BB43128296C226,classic_bike,28:21.5,43:13.8,Halsted St & Clybourn Ave,331,Green St & Madison St,TA1307000120,41.909668,-87.648128,41.88185933,-87.64926374,member
B437E78F988CF567,electric_bike,37:14.4,42:38.5,Dearborn Pkwy & Delaware Pl,TA1307000128,Cityfront Plaza Dr & Pioneer Ct,13427,41.898969,-87.629912,41.890573,-87.622072,member
B3668D0796AC2879,classic_bike,34:03.6,50:17.1,Wells St & Elm St,KA1504000135,Clinton St & Jackson Blvd,638,41.903222,-87.634324,41.87831661,-87.64098108,member
381AB06FFDEA66F5,electric_bike,53:48.9,57:15.7,Desplaines St & Kinzie St,TA1306000003,Kingsbury St & Erie St,13265,41.88871604,-87.64444785,41.8939139,-87.6417358,member
7B159DAD3CF49453,electric_bike,18:31.5,27:10.0,Racine Ave & 15th St,13304,Racine Ave & Washington Blvd,654,41.861267,-87.656625,41.883073,-87.656952,member
E25A21B3DCA80053,classic_bike,41:58.7,54:52.3,Canal St & Monroe St,13056,State St & Harrison St,SL-007,41.8829056,-87.6397409,41.874053,-87.627716,member
82B86A4552B1DEDC,electric_bike,58:05.3,04:04.2,Canal St & Jackson Blvd,13138,Racine Ave & Washington Blvd,654,41.878125,-87.639968,41.883073,-87.656952,member
4EC3B566A19EFF2E,electric_bike,31:39.3,45:30.1,Damen Ave & Cortland St,13133,State St & Kinzie St,13050,41.915983,-87.677335,41.88937547,-87.62707651,member
37E528E6D899F918,electric_bike,19:11.8,22:19.6,Walsh Park,18067,Southport Ave & Clybourn Ave,TA1309000030,41.91461,-87.667968,41.9215759,-87.6664335,member
3158697D2C3FAAE4,classic_bike,21:40.9,27:18.8,Walsh Park,18067,Southport Ave & Clybourn Ave,TA1309000030,41.91461,-87.667968,41.9215759,-87.6664335,member
B4E0997F174067FD,electric_bike,57:07.2,02:28.5,Ashland Ave & Grace St,13319,Oakley Ave & Irving Park Rd,KA1504000158,41.950687,-87.6687,41.95434085,-87.68607962,member
4176DB446BE8C67E,electric_bike,55:08.5,05:28.5,Western Ave & Walton St,KA1504000103,Racine Ave & Washington Blvd,654,41.89841769,-87.68659602,41.883073,-87.656952,member
981394C049F14727,electric_bike,54:07.1,57:57.4,Greenview Ave & Diversey Pkwy,13294,Southport Ave & Clybourn Ave,TA1309000030,41.93258963,-87.66593635,41.9215759,-87.6664335,member
D2AC52404DCC6F71,classic_bike,30:54.1,36:48.7,State St & Randolph St,TA1305000029,State St & Kinzie St,13050,41.88462107,-87.62783423,41.88937547,-87.62707651,member
60EB51B1E4BDDC9F,classic_bike,31:48.6,36:13.2,Orleans St & Hubbard St,636,State St & Kinzie St,13050,41.890028,-87.636618,41.88937547,-87.62707651,member
7A32FF3E5F6D8E93,classic_bike,08:14.9,12:31.8,Orleans St & Hubbard St,636,State St & Kinzie St,13050,41.890028,-87.636618,41.88937547,-87.62707651,member
2B13443CDE847707,classic_bike,46:03.2,04:30.6,Canal St & Madison St,13341,Loomis St & Jackson Blvd,13206,41.882409,-87.639767,41.877945,-87.662007,member
E8A0784D969490DE,classic_bike,25:00.5,30:42.7,Halsted St & Fulton St,23003,Racine Ave & Washington Blvd,654,41.886871,-87.648089,41.883073,-87.656952,member
BCF6207454D5D8E2,electric_bike,38:56.6,46:26.4,Shields Ave & 28th Pl,15443,Rhodes Ave & 32nd St,13215,41.842733,-87.635491,41.836208,-87.613533,member
BB542803790F20C9,classic_bike,58:19.0,08:36.1,Larrabee St & Kingsbury St,TA1306000009,State St & Kinzie St,13050,41.897764,-87.642884,41.88937547,-87.62707651,member
CDCF590E4D09EC80,classic_bike,59:25.4,09:40.2,Larrabee St & Kingsbury St,TA1306000009,State St & Kinzie St,13050,41.897764,-87.642884,41.88937547,-87.62707651,member
6170D49AB4963058,classic_bike,44:56.6,53:39.1,Larrabee St & Kingsbury St,TA1306000009,State St & Kinzie St,13050,41.897764,-87.642884,41.88937547,-87.62707651,member
86DE8A07E62B2CE0,classic_bike,23:16.9,32:29.9,Larrabee St & Kingsbury St,TA1306000009,State St & Kinzie St,13050,41.897764,-87.642884,41.88937547,-87.62707651,member
1023A6880198C6C6,classic_bike,56:08.6,07:24.0,Larrabee St & Kingsbury St,TA1306000009,State St & Kinzie St,13050,41.897764,-87.642884,41.88937547,-87.62707651,member
5D2EC455305CB364,classic_bike,47:40.7,56:12.4,Larrabee St & Kingsbury St,TA1306000009,State St & Kinzie St,13050,41.897764,-87.642884,41.88937547,-87.62707651,member
6991E4E878644A24,electric_bike,29:16.9,43:26.1,Canal St & Jackson Blvd,13138,State St & Kinzie St,13050,41.878125,-87.639968,41.88937547,-87.62707651,member
7A5FC24D860A4DA5,classic_bike,41:08.2,02:38.5,Clarendon Ave & Gordon Ter,13379,Clarendon Ave & Gordon Ter,13379,41.95786652,-87.64950514,41.95786652,-87.64950514,member
AE3D243BDC209223,classic_bike,49:44.6,54:04.1,Indiana Ave & 31st St,TA1308000036,Rhodes Ave & 32nd St,13215,41.838842,-87.621857,41.836208,-87.613533,member
FCDFC522C0BF55B6,classic_bike,51:49.6,08:50.8,Green St & Randolph St*,chargingstx3,State St & Kinzie St,13050,41.88360166,-87.64862671,41.88937547,-87.62707651,casual
E98376B3EFD73B7C,classic_bike,42:37.5,47:54.7,MLK Jr Dr & 29th St,TA1307000139,Rhodes Ave & 32nd St,13215,41.842052,-87.617,41.836208,-87.613533,member
DF9F9465F4558C5A,electric_bike,32:08.8,37:51.5,Daley Center Plaza,TA1306000010,Federal St & Polk St,SL-008,41.884241,-87.629634,41.87207763,-87.62954377,member
7CA95FF9532FA93A,electric_bike,05:34.9,11:03.6,Daley Center Plaza,TA1306000010,Federal St & Polk St,SL-008,41.884241,-87.629634,41.87207763,-87.62954377,member
3264417F8BF7FE90,electric_bike,23:42.3,49:45.4,Canal St & Adams St,13011,DuSable Lake Shore Dr & Diversey Pkwy,TA1309000039,41.879255,-87.639904,41.932588,-87.636427,member
AE38C8E08339CEB0,classic_bike,29:05.8,36:26.3,Canal St & Adams St,13011,Federal St & Polk St,SL-008,41.879255,-87.639904,41.87207763,-87.62954377,member
FF0AA1AF3C11D297,electric_bike,05:03.7,11:53.0,Canal St & Adams St,13011,Federal St & Polk St,SL-008,41.879255,-87.639904,41.87207763,-87.62954377,member
349619B127E31F1F,classic_bike,01:29.1,08:07.1,Broadway & Barry Ave,13137,DuSable Lake Shore Dr & Diversey Pkwy,TA1309000039,41.93758232,-87.64409781,41.932588,-87.636427,member
BB44F20301B24999,classic_bike,29:04.3,32:50.0,Halsted St & 56th St,KA1503000011,Halsted St & 59th St,593,41.79292965,-87.64499006,41.787539,-87.644874,member
D632072E367D37A7,electric_bike,05:15.7,11:25.6,Ping Tom Park (East),20260,Federal St & Polk St,SL-008,41.8579886,-87.6319447,41.87207763,-87.62954377,member
C01E01838052669A,classic_bike,27:37.4,36:22.4,Canal St & Jackson Blvd,13138,Federal St & Polk St,SL-008,41.878125,-87.639968,41.87207763,-87.62954377,member
3B9C1D3F7DF47061,classic_bike,04:34.0,32:48.7,Lake Park Ave & 53rd St,KA1503000059,State St & 35th St,TA1307000129,41.79949429,-87.5864499,41.83103631,-87.62679756,member
6DD6864D0E17F80F,electric_bike,43:47.9,48:58.5,Michigan Ave & Jackson Blvd,TA1309000002,Federal St & Polk St,SL-008,41.8777679,-87.624164,41.87207763,-87.62954377,member
D43D3213A51E4114,classic_bike,51:47.5,57:58.4,Franklin St & Monroe St,TA1309000007,Federal St & Polk St,SL-008,41.880317,-87.635185,41.87207763,-87.62954377,member
0C4B66511055FD36,classic_bike,18:08.8,48:41.8,Streeter Dr & Grand Ave,13022,DuSable Lake Shore Dr & Diversey Pkwy,TA1309000039,41.892278,-87.612043,41.932588,-87.636427,member
8091E59EEA8D4B4A,electric_bike,31:25.9,34:47.5,Calumet Ave & 35th St,13345,State St & 35th St,TA1307000129,41.831379,-87.618034,41.83103631,-87.62679756,member
9D3EEE50FD732AB3,electric_bike,35:34.2,41:25.3,Spaulding Ave & Armitage Ave,15650,Milwaukee Ave & Wabansia Ave,13243,41.91710803,-87.71022096,41.912616,-87.681391,member
68FB21F35E2322F0,electric_bike,08:39.2,11:24.5,Damen Ave & Cortland St,13133,Milwaukee Ave & Wabansia Ave,13243,41.915983,-87.677335,41.912616,-87.681391,member
CA0048E4E41ACD96,classic_bike,34:04.5,52:34.2,Richmond St & Lincoln Ave,21452,Fairfield Ave & Pratt Blvd,24148,41.9881174,-87.7031754,42.0044482,-87.6985973,member
12A7903F5E64C051,electric_bike,28:55.9,50:32.5,Rockwell St & Eastwood Ave,KA1504000093,Milwaukee Ave & Wabansia Ave,13243,41.96590014,-87.69363849,41.912616,-87.681391,member
21CE1F7D0EEEA3AA,classic_bike,08:15.1,38:11.9,Calumet Ave & 18th St,13102,Ashland Ave & Pershing Rd,16932,41.85761755,-87.61941075,41.823465,-87.665577,member
1D85C95E00F898B4,electric_bike,18:36.8,20:07.0,Calumet Ave & 33rd St,13217,Calumet Ave & 35th St,13345,41.8349,-87.61793,41.831379,-87.618034,member
48D92412D8DB620A,electric_bike,40:13.1,47:17.1,Damen Ave & Wabansia Ave,20,Milwaukee Ave & Wabansia Ave,13243,41.9122813,-87.6773211,41.912616,-87.681391,member
1A1AE86F4639E43C,classic_bike,16:11.2,20:26.6,State St & Van Buren St,TA1305000035,LaSalle St & Washington St,13006,41.877181,-87.627844,41.882664,-87.63253,member
7E201696ECCDFEC2,classic_bike,19:23.3,32:18.8,Indiana Ave & Roosevelt Rd,SL-005,LaSalle St & Washington St,13006,41.867888,-87.623041,41.882664,-87.63253,member
553BE73D4CDA287E,classic_bike,18:20.4,31:59.1,Indiana Ave & Roosevelt Rd,SL-005,LaSalle St & Washington St,13006,41.867888,-87.623041,41.882664,-87.63253,member
FBEF5077B56AF3F8,classic_bike,19:58.9,31:34.0,Indiana Ave & Roosevelt Rd,SL-005,LaSalle St & Washington St,13006,41.867888,-87.623041,41.882664,-87.63253,member
5C301A6CEB90DFE1,classic_bike,34:58.1,51:07.7,State St & Van Buren St,TA1305000035,LaSalle St & Washington St,13006,41.877181,-87.627844,41.882664,-87.63253,member
F04629438B7FEBF6,electric_bike,38:51.5,57:14.1,LaSalle St & Washington St,13006,LaSalle St & Washington St,13006,41.882664,-87.63253,41.882664,-87.63253,member
262301272748FFE1,electric_bike,58:06.3,18:12.6,LaSalle St & Washington St,13006,LaSalle St & Washington St,13006,41.882664,-87.63253,41.882664,-87.63253,member
43E6F290FEA97E73,classic_bike,40:08.6,44:36.4,Millennium Park,13008,LaSalle St & Washington St,13006,41.8810317,-87.62408432,41.882664,-87.63253,member
93674D1D13A57E04,electric_bike,56:58.5,02:25.3,Ashland Ave & Blackhawk St,13224,Milwaukee Ave & Wabansia Ave,13243,41.907066,-87.667252,41.912616,-87.681391,member
D20C502E60D1571A,classic_bike,48:58.9,13:21.1,Damen Ave & Cortland St,13133,LaSalle St & Washington St,13006,41.915983,-87.677335,41.882664,-87.63253,member
F631C4C075908F05,electric_bike,40:10.8,55:31.0,Damen Ave & Cortland St,13133,LaSalle St & Washington St,13006,41.91599762,-87.67731917,41.882664,-87.63253,member
BB3BFA972B097DEC,classic_bike,37:07.6,39:02.1,Wilton Ave & Diversey Pkwy*,chargingstx2,Burling St & Diversey Pkwy,13208,41.932418,-87.652705,41.93314,-87.64776,member
D9BF81C1743A2D74,electric_bike,26:56.3,28:43.9,Wilton Ave & Diversey Pkwy,TA1306000014,Burling St & Diversey Pkwy,13208,41.932418,-87.652705,41.93314,-87.64776,member
64EFF1119E449B06,classic_bike,54:42.6,12:59.4,California Ave & Granville Ave,23104,Fairfield Ave & Pratt Blvd,24148,41.9941803,-87.6995596,42.0044482,-87.6985973,member
BA64036385FDC8EA,classic_bike,21:33.7,26:11.4,Canal St & Adams St,13011,LaSalle St & Washington St,13006,41.879255,-87.639904,41.882664,-87.63253,member
15C96A671DD1BE31,classic_bike,44:21.6,58:17.0,Racine Ave & Congress Pkwy,TA1306000025,LaSalle St & Washington St,13006,41.87464,-87.65703,41.882664,-87.63253,member
AE7C5C83AD69B4D2,electric_bike,35:31.0,40:39.6,Desplaines St & Kinzie St,TA1306000003,LaSalle St & Washington St,13006,41.88871604,-87.64444785,41.882664,-87.63253,member
C63F46C9532AD825,classic_bike,08:46.2,15:49.4,Indiana Ave & 31st St,TA1308000036,Calumet Ave & 35th St,13345,41.838842,-87.621857,41.831379,-87.618034,member
6676FB805C6887CB,classic_bike,26:11.0,32:45.8,Michigan Ave & Lake St,TA1305000011,LaSalle St & Washington St,13006,41.886022,-87.624398,41.882664,-87.63253,member
2151B44859F916A3,classic_bike,52:28.0,32:44.8,Paulina St & 18th St,TA1307000159,Milwaukee Ave & Wabansia Ave,13243,41.857901,-87.668745,41.912616,-87.681391,member
1DC14F1D7D34339C,electric_bike,23:58.6,34:17.2,Carpenter St & Huron St,13196,LaSalle St & Washington St,13006,41.894556,-87.653449,41.882664,-87.63253,member
45644465331BA958,classic_bike,11:03.5,16:49.7,Stave St & Armitage Ave,13266,Milwaukee Ave & Wabansia Ave,13243,41.917741,-87.691392,41.912616,-87.681391,member
A928D7D4B7294E07,classic_bike,09:29.6,12:08.0,Canal St & Jackson Blvd,13138,Jefferson St & Monroe St,WL-011,41.878125,-87.639968,41.88032963,-87.64274597,member
B0F86B439A7CBBF7,classic_bike,22:14.3,25:18.4,Halsted St & Wrightwood Ave,TA1309000061,Racine Ave & Wrightwood Ave,TA1309000059,41.929143,-87.649077,41.928887,-87.658971,member
383C6807F85D63E4,classic_bike,52:41.8,56:57.8,Carpenter St & Huron St,13196,Desplaines St & Kinzie St,TA1306000003,41.894556,-87.653449,41.88871604,-87.64444785,member
8E0FB02DB8F53E44,electric_bike,28:14.3,35:21.6,Ashland Ave & Augusta Blvd,13248,Desplaines St & Kinzie St,TA1306000003,41.899643,-87.6677,41.88871604,-87.64444785,member
20B8C3649294DEAD,classic_bike,41:19.0,52:02.5,Ashland Ave & Augusta Blvd,13248,Desplaines St & Kinzie St,TA1306000003,41.899643,-87.6677,41.88871604,-87.64444785,member
9D7A97F54115FF67,classic_bike,09:50.8,17:21.7,Orleans St & Chestnut St (NEXT Apts),620,Orleans St & Chestnut St (NEXT Apts),620,41.898203,-87.637536,41.898203,-87.637536,member
D31F1E7F8B3D1F87,electric_bike,57:18.8,06:37.8,Noble St & Milwaukee Ave,13290,Desplaines St & Kinzie St,TA1306000003,41.9007,-87.662607,41.88871604,-87.64444785,member
B151C17B15353FBB,classic_bike,07:45.5,09:58.3,Milwaukee Ave & Grand Ave,13033,Desplaines St & Kinzie St,TA1306000003,41.891578,-87.648384,41.88871604,-87.64444785,member
